{
  "loc": {
    "coordinates": [
      0.0037377856069111,
      51.531951985733
    ],
    "type": "Point"
  },
  "station": "Abbey Road",
  "_id": {
    "$oid": "544a4970383bc47d227a287c"
  }
}
{
  "loc": {
    "coordinates": [
      0.12028637127604,
      51.49078408041
    ],
    "type": "Point"
  },
  "station": "Abbey Wood",
  "_id": {
    "$oid": "544a4970383bc47d227a287d"
  }
}
{
  "loc": {
    "coordinates": [
      -0.26767554257793,
      51.516886963398
    ],
    "type": "Point"
  },
  "station": "Acton",
  "_id": {
    "$oid": "544a4970383bc47d227a287e"
  }
}
{
  "loc": {
    "coordinates": [
      -0.26341579231596,
      51.508757812012
    ],
    "type": "Point"
  },
  "station": "Acton Central",
  "_id": {
    "$oid": "544a4970383bc47d227a287f"
  }
}
{
  "loc": {
    "coordinates": [
      -0.2802882961706,
      51.503071476856
    ],
    "type": "Point"
  },
  "station": "Acton Town",
  "_id": {
    "$oid": "544a4970383bc47d227a2880"
  }
}
{
  "loc": {
    "coordinates": [
      0.12645902197803,
      51.435815590189
    ],
    "type": "Point"
  },
  "station": "Albany Park",
  "_id": {
    "$oid": "544a4970383bc47d227a2881"
  }
}
{
  "loc": {
    "coordinates": [
      -0.075612503707184,
      51.514342387502
    ],
    "type": "Point"
  },
  "station": "Aldgate",
  "_id": {
    "$oid": "544a4970383bc47d227a2882"
  }
}
{
  "loc": {
    "coordinates": [
      -0.072987053548915,
      51.515081631079
    ],
    "type": "Point"
  },
  "station": "Aldgate East",
  "_id": {
    "$oid": "544a4970383bc47d227a2883"
  }
}
{
  "loc": {
    "coordinates": [
      -0.1201345367387,
      51.598262836895
    ],
    "type": "Point"
  },
  "station": "Alexandra Palace",
  "_id": {
    "$oid": "544a4970383bc47d227a2884"
  }
}
{
  "loc": {
    "coordinates": [
      -0.012610477634,
      51.510476925464
    ],
    "type": "Point"
  },
  "station": "All Saints",
  "_id": {
    "$oid": "544a4970383bc47d227a2885"
  }
}
{
  "loc": {
    "coordinates": [
      -0.2995013414547,
      51.541209310632
    ],
    "type": "Point"
  },
  "station": "Alperton",
  "_id": {
    "$oid": "544a4970383bc47d227a2886"
  }
}
{
  "loc": {
    "coordinates": [
      -0.60649933056891,
      51.674129392062
    ],
    "type": "Point"
  },
  "station": "Amersham",
  "_id": {
    "$oid": "544a4970383bc47d227a2887"
  }
}
{
  "loc": {
    "coordinates": [
      -0.065122723194277,
      51.412516725364
    ],
    "type": "Point"
  },
  "station": "Anerley",
  "_id": {
    "$oid": "544a4970383bc47d227a2888"
  }
}
{
  "loc": {
    "coordinates": [
      -0.10556703413728,
      51.532968028132
    ],
    "type": "Point"
  },
  "station": "Angel",
  "_id": {
    "$oid": "544a4970383bc47d227a2889"
  }
}
{
  "loc": {
    "coordinates": [
      -0.048718479404686,
      51.612420325055
    ],
    "type": "Point"
  },
  "station": "Angel Road",
  "_id": {
    "$oid": "544a4970383bc47d227a288a"
  }
}
{
  "loc": {
    "coordinates": [
      -0.13510715160572,
      51.565490550156
    ],
    "type": "Point"
  },
  "station": "Archway",
  "_id": {
    "$oid": "544a4970383bc47d227a288b"
  }
}
{
  "loc": {
    "coordinates": [
      -0.13425577761924,
      51.616230157665
    ],
    "type": "Point"
  },
  "station": "Arnos Grove",
  "_id": {
    "$oid": "544a4970383bc47d227a288c"
  }
}
{
  "loc": {
    "coordinates": [
      -0.10548551071377,
      51.558541388156
    ],
    "type": "Point"
  },
  "station": "Arsenal",
  "_id": {
    "$oid": "544a4970383bc47d227a288d"
  }
}
{
  "loc": {
    "coordinates": [
      -0.15688978273689,
      51.523129639184
    ],
    "type": "Point"
  },
  "station": "Baker Street",
  "_id": {
    "$oid": "544a4970383bc47d227a288e"
  }
}
{
  "loc": {
    "coordinates": [
      -0.15267077683302,
      51.443182580239
    ],
    "type": "Point"
  },
  "station": "Balham",
  "_id": {
    "$oid": "544a4970383bc47d227a288f"
  }
}
{
  "loc": {
    "coordinates": [
      -0.088985715325045,
      51.513347072699
    ],
    "type": "Point"
  },
  "station": "Bank",
  "_id": {
    "$oid": "544a4970383bc47d227a2890"
  }
}
{
  "loc": {
    "coordinates": [
      -0.21311798536959,
      51.329293148535
    ],
    "type": "Point"
  },
  "station": "Banstead",
  "_id": {
    "$oid": "544a4970383bc47d227a2891"
  }
}
{
  "loc": {
    "coordinates": [
      -0.097707167852645,
      51.520215295016
    ],
    "type": "Point"
  },
  "station": "Barbican",
  "_id": {
    "$oid": "544a4970383bc47d227a2892"
  }
}
{
  "loc": {
    "coordinates": [
      0.0808460268962,
      51.539521102884
    ],
    "type": "Point"
  },
  "station": "Barking",
  "_id": {
    "$oid": "544a4970383bc47d227a2893"
  }
}
{
  "loc": {
    "coordinates": [
      0.088491071171579,
      51.585850602534
    ],
    "type": "Point"
  },
  "station": "Barkingside",
  "_id": {
    "$oid": "544a4970383bc47d227a2894"
  }
}
{
  "loc": {
    "coordinates": [
      0.16096241569889,
      51.464780266606
    ],
    "type": "Point"
  },
  "station": "Barnehurst",
  "_id": {
    "$oid": "544a4970383bc47d227a2895"
  }
}
{
  "loc": {
    "coordinates": [
      -0.24201866806989,
      51.467127801887
    ],
    "type": "Point"
  },
  "station": "Barnes",
  "_id": {
    "$oid": "544a4970383bc47d227a2896"
  }
}
{
  "loc": {
    "coordinates": [
      -0.25234822148068,
      51.472228083132
    ],
    "type": "Point"
  },
  "station": "Barnes Bridge",
  "_id": {
    "$oid": "544a4970383bc47d227a2897"
  }
}
{
  "loc": {
    "coordinates": [
      -0.21341574380466,
      51.490228707652
    ],
    "type": "Point"
  },
  "station": "Barons Court",
  "_id": {
    "$oid": "544a4970383bc47d227a2898"
  }
}
{
  "loc": {
    "coordinates": [
      -0.14810936441775,
      51.477318340776
    ],
    "type": "Point"
  },
  "station": "Battersea Park",
  "_id": {
    "$oid": "544a4970383bc47d227a2899"
  }
}
{
  "loc": {
    "coordinates": [
      -0.18788716574986,
      51.512111310915
    ],
    "type": "Point"
  },
  "station": "Bayswater",
  "_id": {
    "$oid": "544a4970383bc47d227a289a"
  }
}
{
  "loc": {
    "coordinates": [
      -0.016481381251057,
      51.424626059454
    ],
    "type": "Point"
  },
  "station": "Beckenham Hill",
  "_id": {
    "$oid": "544a4970383bc47d227a289b"
  }
}
{
  "loc": {
    "coordinates": [
      -0.025687362710869,
      51.410941644002
    ],
    "type": "Point"
  },
  "station": "Beckenham Junction",
  "_id": {
    "$oid": "544a4970383bc47d227a289c"
  }
}
{
  "loc": {
    "coordinates": [
      0.061539705886513,
      51.514376621471
    ],
    "type": "Point"
  },
  "station": "Beckton",
  "_id": {
    "$oid": "544a4970383bc47d227a289d"
  }
}
{
  "loc": {
    "coordinates": [
      0.054836346093653,
      51.508900786453
    ],
    "type": "Point"
  },
  "station": "Beckton Park",
  "_id": {
    "$oid": "544a4970383bc47d227a289e"
  }
}
{
  "loc": {
    "coordinates": [
      0.12689470862039,
      51.539585393148
    ],
    "type": "Point"
  },
  "station": "Becontree",
  "_id": {
    "$oid": "544a4970383bc47d227a289f"
  }
}
{
  "loc": {
    "coordinates": [
      -0.020397386684838,
      51.433864895434
    ],
    "type": "Point"
  },
  "station": "Bellingham",
  "_id": {
    "$oid": "544a4970383bc47d227a28a0"
  }
}
{
  "loc": {
    "coordinates": [
      -0.19947489773285,
      51.344119948481
    ],
    "type": "Point"
  },
  "station": "Belmont",
  "_id": {
    "$oid": "544a4970383bc47d227a28a1"
  }
}
{
  "loc": {
    "coordinates": [
      -0.1639600723677,
      51.550190897304
    ],
    "type": "Point"
  },
  "station": "Belsize Park",
  "_id": {
    "$oid": "544a4970383bc47d227a28a2"
  }
}
{
  "loc": {
    "coordinates": [
      0.15204819376851,
      51.491958983909
    ],
    "type": "Point"
  },
  "station": "Belvedere",
  "_id": {
    "$oid": "544a4970383bc47d227a28a3"
  }
}
{
  "loc": {
    "coordinates": [
      -0.064315686265478,
      51.497960787629
    ],
    "type": "Point"
  },
  "station": "Bermondsey",
  "_id": {
    "$oid": "544a4970383bc47d227a28a4"
  }
}
{
  "loc": {
    "coordinates": [
      -0.28030710499701,
      51.398768439892
    ],
    "type": "Point"
  },
  "station": "Berrylands",
  "_id": {
    "$oid": "544a4970383bc47d227a28a5"
  }
}
{
  "loc": {
    "coordinates": [
      -0.055377698622437,
      51.527191747482
    ],
    "type": "Point"
  },
  "station": "Bethnal Green",
  "_id": {
    "$oid": "544a4970383bc47d227a28a6"
  }
}
{
  "loc": {
    "coordinates": [
      -0.059999330521283,
      51.524282746211
    ],
    "type": "Point"
  },
  "station": "Bethnal Green Rail",
  "_id": {
    "$oid": "544a4970383bc47d227a28a7"
  }
}
{
  "loc": {
    "coordinates": [
      0.14821829873454,
      51.440814511828
    ],
    "type": "Point"
  },
  "station": "Bexley",
  "_id": {
    "$oid": "544a4970383bc47d227a28a8"
  }
}
{
  "loc": {
    "coordinates": [
      0.13337735793409,
      51.463549940694
    ],
    "type": "Point"
  },
  "station": "Bexleyheath",
  "_id": {
    "$oid": "544a4970383bc47d227a28a9"
  }
}
{
  "loc": {
    "coordinates": [
      0.044318404705676,
      51.400379563229
    ],
    "type": "Point"
  },
  "station": "Bickley",
  "_id": {
    "$oid": "544a4970383bc47d227a28aa"
  }
}
{
  "loc": {
    "coordinates": [
      -0.0562718615037,
      51.403863100681
    ],
    "type": "Point"
  },
  "station": "Birkbeck",
  "_id": {
    "$oid": "544a4970383bc47d227a28ab"
  }
}
{
  "loc": {
    "coordinates": [
      -0.10298097717171,
      51.511586939902
    ],
    "type": "Point"
  },
  "station": "Blackfriars",
  "_id": {
    "$oid": "544a4970383bc47d227a28ac"
  }
}
{
  "loc": {
    "coordinates": [
      0.0083509882498168,
      51.465408009363
    ],
    "type": "Point"
  },
  "station": "Blackheath",
  "_id": {
    "$oid": "544a4970383bc47d227a28ad"
  }
}
{
  "loc": {
    "coordinates": [
      -0.039611280026926,
      51.585776631411
    ],
    "type": "Point"
  },
  "station": "Blackhorse Road",
  "_id": {
    "$oid": "544a4970383bc47d227a28ae"
  }
}
{
  "loc": {
    "coordinates": [
      -0.0072207589795153,
      51.507831540895
    ],
    "type": "Point"
  },
  "station": "Blackwall",
  "_id": {
    "$oid": "544a4970383bc47d227a28af"
  }
}
{
  "loc": {
    "coordinates": [
      -0.14959920109132,
      51.513797542631
    ],
    "type": "Point"
  },
  "station": "Bond Street",
  "_id": {
    "$oid": "544a4970383bc47d227a28b0"
  }
}
{
  "loc": {
    "coordinates": [
      -0.094182918403389,
      51.501048880447
    ],
    "type": "Point"
  },
  "station": "Borough",
  "_id": {
    "$oid": "544a4970383bc47d227a28b1"
  }
}
{
  "loc": {
    "coordinates": [
      -0.32473278589022,
      51.495765574642
    ],
    "type": "Point"
  },
  "station": "Boston Manor",
  "_id": {
    "$oid": "544a4970383bc47d227a28b2"
  }
}
{
  "loc": {
    "coordinates": [
      -0.12416262739225,
      51.607031935983
    ],
    "type": "Point"
  },
  "station": "Bounds Green",
  "_id": {
    "$oid": "544a4970383bc47d227a28b3"
  }
}
{
  "loc": {
    "coordinates": [
      -0.020485486059214,
      51.527615205643
    ],
    "type": "Point"
  },
  "station": "Bow Church",
  "_id": {
    "$oid": "544a4970383bc47d227a28b4"
  }
}
{
  "loc": {
    "coordinates": [
      -0.024345177705763,
      51.527041809222
    ],
    "type": "Point"
  },
  "station": "Bow Road",
  "_id": {
    "$oid": "544a4970383bc47d227a28b5"
  }
}
{
  "loc": {
    "coordinates": [
      -0.11977778086817,
      51.607249528898
    ],
    "type": "Point"
  },
  "station": "Bowes Park",
  "_id": {
    "$oid": "544a4970383bc47d227a28b6"
  }
}
{
  "loc": {
    "coordinates": [
      -0.21332141198154,
      51.576599240756
    ],
    "type": "Point"
  },
  "station": "Brent Cross",
  "_id": {
    "$oid": "544a4970383bc47d227a28b7"
  }
}
{
  "loc": {
    "coordinates": [
      -0.30960813639036,
      51.487536344613
    ],
    "type": "Point"
  },
  "station": "Brentford",
  "_id": {
    "$oid": "544a4970383bc47d227a28b8"
  }
}
{
  "loc": {
    "coordinates": [
      0.29968725631633,
      51.613610299318
    ],
    "type": "Point"
  },
  "station": "Brentwood",
  "_id": {
    "$oid": "544a4970383bc47d227a28b9"
  }
}
{
  "loc": {
    "coordinates": [
      -0.03107782337368,
      51.655244617739
    ],
    "type": "Point"
  },
  "station": "Brimsdown",
  "_id": {
    "$oid": "544a4970383bc47d227a28ba"
  }
}
{
  "loc": {
    "coordinates": [
      -0.11453770490964,
      51.462736815606
    ],
    "type": "Point"
  },
  "station": "Brixton",
  "_id": {
    "$oid": "544a4970383bc47d227a28bb"
  }
}
{
  "loc": {
    "coordinates": [
      -0.03773385721419,
      51.464749666688
    ],
    "type": "Point"
  },
  "station": "Brockley",
  "_id": {
    "$oid": "544a4970383bc47d227a28bc"
  }
}
{
  "loc": {
    "coordinates": [
      0.017249827752461,
      51.408942308516
    ],
    "type": "Point"
  },
  "station": "Bromley North",
  "_id": {
    "$oid": "544a4970383bc47d227a28bd"
  }
}
{
  "loc": {
    "coordinates": [
      0.017373953488859,
      51.400001286054
    ],
    "type": "Point"
  },
  "station": "Bromley South",
  "_id": {
    "$oid": "544a4970383bc47d227a28be"
  }
}
{
  "loc": {
    "coordinates": [
      -0.01166796209473,
      51.52484020109
    ],
    "type": "Point"
  },
  "station": "Bromley-by-Bow",
  "_id": {
    "$oid": "544a4970383bc47d227a28bf"
  }
}
{
  "loc": {
    "coordinates": [
      -0.20282406710345,
      51.545262386773
    ],
    "type": "Point"
  },
  "station": "Brondesbury",
  "_id": {
    "$oid": "544a4970383bc47d227a28c0"
  }
}
{
  "loc": {
    "coordinates": [
      -0.21045952961905,
      51.540325391085
    ],
    "type": "Point"
  },
  "station": "Brondesbury Park",
  "_id": {
    "$oid": "544a4970383bc47d227a28c1"
  }
}
{
  "loc": {
    "coordinates": [
      -0.011009600958786,
      51.747015568918
    ],
    "type": "Point"
  },
  "station": "Broxbourne",
  "_id": {
    "$oid": "544a4970383bc47d227a28c2"
  }
}
{
  "loc": {
    "coordinates": [
      -0.070384555517657,
      51.594011254361
    ],
    "type": "Point"
  },
  "station": "Bruce Grove",
  "_id": {
    "$oid": "544a4970383bc47d227a28c3"
  }
}
{
  "loc": {
    "coordinates": [
      0.046726985755,
      51.626576654655
    ],
    "type": "Point"
  },
  "station": "Buckhurst Hill",
  "_id": {
    "$oid": "544a4970383bc47d227a28c4"
  }
}
{
  "loc": {
    "coordinates": [
      -0.26431627556888,
      51.602551943784
    ],
    "type": "Point"
  },
  "station": "Burnt Oak",
  "_id": {
    "$oid": "544a4970383bc47d227a28c5"
  }
}
{
  "loc": {
    "coordinates": [
      -0.069265963311165,
      51.641481967261
    ],
    "type": "Point"
  },
  "station": "Bush Hill Park",
  "_id": {
    "$oid": "544a4970383bc47d227a28c6"
  }
}
{
  "loc": {
    "coordinates": [
      -0.38470709118099,
      51.645544206307
    ],
    "type": "Point"
  },
  "station": "Bushey",
  "_id": {
    "$oid": "544a4970383bc47d227a28c7"
  }
}
{
  "loc": {
    "coordinates": [
      -0.11834644235876,
      51.547885455043
    ],
    "type": "Point"
  },
  "station": "Caledonian Road",
  "_id": {
    "$oid": "544a4970383bc47d227a28c8"
  }
}
{
  "loc": {
    "coordinates": [
      -0.11519043865212,
      51.543284589046
    ],
    "type": "Point"
  },
  "station": "Caledonian Road and Barnsbury",
  "_id": {
    "$oid": "544a4970383bc47d227a28c9"
  }
}
{
  "loc": {
    "coordinates": [
      -0.05718878628523,
      51.532059770708
    ],
    "type": "Point"
  },
  "station": "Cambridge Heath",
  "_id": {
    "$oid": "544a4970383bc47d227a28ca"
  }
}
{
  "loc": {
    "coordinates": [
      -0.13918869492503,
      51.541851250779
    ],
    "type": "Point"
  },
  "station": "Camden Road",
  "_id": {
    "$oid": "544a4970383bc47d227a28cb"
  }
}
{
  "loc": {
    "coordinates": [
      -0.14243796405007,
      51.539969369251
    ],
    "type": "Point"
  },
  "station": "Camden Town",
  "_id": {
    "$oid": "544a4970383bc47d227a28cc"
  }
}
{
  "loc": {
    "coordinates": [
      -0.05079271714472,
      51.498168417556
    ],
    "type": "Point"
  },
  "station": "Canada Water",
  "_id": {
    "$oid": "544a4970383bc47d227a28cd"
  }
}
{
  "loc": {
    "coordinates": [
      -0.019452434600173,
      51.503578406232
    ],
    "type": "Point"
  },
  "station": "Canary Wharf",
  "_id": {
    "$oid": "544a4970383bc47d227a28ce"
  }
}
{
  "loc": {
    "coordinates": [
      0.0083200415480822,
      51.513870285695
    ],
    "type": "Point"
  },
  "station": "Canning Town",
  "_id": {
    "$oid": "544a4970383bc47d227a28cf"
  }
}
{
  "loc": {
    "coordinates": [
      -0.090236118885105,
      51.511362099463
    ],
    "type": "Point"
  },
  "station": "Cannon Street",
  "_id": {
    "$oid": "544a4970383bc47d227a28d0"
  }
}
{
  "loc": {
    "coordinates": [
      -0.092559776199295,
      51.548188396024
    ],
    "type": "Point"
  },
  "station": "Canonbury",
  "_id": {
    "$oid": "544a4970383bc47d227a28d1"
  }
}
{
  "loc": {
    "coordinates": [
      -0.29437715826231,
      51.607650605221
    ],
    "type": "Point"
  },
  "station": "Canons Park",
  "_id": {
    "$oid": "544a4970383bc47d227a28d2"
  }
}
{
  "loc": {
    "coordinates": [
      -0.38581487914664,
      51.628186764519
    ],
    "type": "Point"
  },
  "station": "Carpenders Park",
  "_id": {
    "$oid": "544a4970383bc47d227a28d3"
  }
}
{
  "loc": {
    "coordinates": [
      -0.16638396492825,
      51.368426385593
    ],
    "type": "Point"
  },
  "station": "Carshalton",
  "_id": {
    "$oid": "544a4970383bc47d227a28d4"
  }
}
{
  "loc": {
    "coordinates": [
      -0.16948196651609,
      51.357386860957
    ],
    "type": "Point"
  },
  "station": "Carshalton Beeches",
  "_id": {
    "$oid": "544a4970383bc47d227a28d5"
  }
}
{
  "loc": {
    "coordinates": [
      -0.33148966489625,
      51.522973705473
    ],
    "type": "Point"
  },
  "station": "Castle Bar Park",
  "_id": {
    "$oid": "544a4970383bc47d227a28d6"
  }
}
{
  "loc": {
    "coordinates": [
      -0.078592962360211,
      51.282162831704
    ],
    "type": "Point"
  },
  "station": "Caterham",
  "_id": {
    "$oid": "544a4970383bc47d227a28d7"
  }
}
{
  "loc": {
    "coordinates": [
      -0.026524111698793,
      51.44426491475
    ],
    "type": "Point"
  },
  "station": "Catford",
  "_id": {
    "$oid": "544a4970383bc47d227a28d8"
  }
}
{
  "loc": {
    "coordinates": [
      -0.024807488912048,
      51.444694627575
    ],
    "type": "Point"
  },
  "station": "Catford Bridge",
  "_id": {
    "$oid": "544a4970383bc47d227a28d9"
  }
}
{
  "loc": {
    "coordinates": [
      0.12891553745986,
      51.568046861857
    ],
    "type": "Point"
  },
  "station": "Chadwell Heath",
  "_id": {
    "$oid": "544a4970383bc47d227a28da"
  }
}
{
  "loc": {
    "coordinates": [
      0.28749010037512,
      51.4855544601
    ],
    "type": "Point"
  },
  "station": "Chafford Hundred",
  "_id": {
    "$oid": "544a4970383bc47d227a28db"
  }
}
{
  "loc": {
    "coordinates": [
      -0.56105332039672,
      51.667907547721
    ],
    "type": "Point"
  },
  "station": "Chalfont and Latimer",
  "_id": {
    "$oid": "544a4970383bc47d227a28dc"
  }
}
{
  "loc": {
    "coordinates": [
      -0.15371865256093,
      51.544149104848
    ],
    "type": "Point"
  },
  "station": "Chalk Farm",
  "_id": {
    "$oid": "544a4970383bc47d227a28dd"
  }
}
{
  "loc": {
    "coordinates": [
      -0.11194761724718,
      51.518494029809
    ],
    "type": "Point"
  },
  "station": "Chancery Lane",
  "_id": {
    "$oid": "544a4970383bc47d227a28de"
  }
}
{
  "loc": {
    "coordinates": [
      -0.12478853109718,
      51.508358644804
    ],
    "type": "Point"
  },
  "station": "Charing Cross",
  "_id": {
    "$oid": "544a4970383bc47d227a28df"
  }
}
{
  "loc": {
    "coordinates": [
      0.030956045084626,
      51.486834983914
    ],
    "type": "Point"
  },
  "station": "Charlton",
  "_id": {
    "$oid": "544a4970383bc47d227a28e0"
  }
}
{
  "loc": {
    "coordinates": [
      -0.21419692461334,
      51.355460268652
    ],
    "type": "Point"
  },
  "station": "Cheam",
  "_id": {
    "$oid": "544a4970383bc47d227a28e1"
  }
}
{
  "loc": {
    "coordinates": [
      0.10899847900884,
      51.35626456871
    ],
    "type": "Point"
  },
  "station": "Chelsfield",
  "_id": {
    "$oid": "544a4970383bc47d227a28e2"
  }
}
{
  "loc": {
    "coordinates": [
      -0.61141518839627,
      51.705380095434
    ],
    "type": "Point"
  },
  "station": "Chesham",
  "_id": {
    "$oid": "544a4970383bc47d227a28e3"
  }
}
{
  "loc": {
    "coordinates": [
      -0.023872946724225,
      51.702873317164
    ],
    "type": "Point"
  },
  "station": "Cheshunt",
  "_id": {
    "$oid": "544a4970383bc47d227a28e4"
  }
}
{
  "loc": {
    "coordinates": [
      -0.30046176722378,
      51.364243478778
    ],
    "type": "Point"
  },
  "station": "Chessington North",
  "_id": {
    "$oid": "544a4970383bc47d227a28e5"
  }
}
{
  "loc": {
    "coordinates": [
      -0.30707466141954,
      51.356704567744
    ],
    "type": "Point"
  },
  "station": "Chessington South",
  "_id": {
    "$oid": "544a4970383bc47d227a28e6"
  }
}
{
  "loc": {
    "coordinates": [
      0.076193656688014,
      51.617857862487
    ],
    "type": "Point"
  },
  "station": "Chigwell",
  "_id": {
    "$oid": "544a4970383bc47d227a28e7"
  }
}
{
  "loc": {
    "coordinates": [
      0.0095287721085566,
      51.63325337195
    ],
    "type": "Point"
  },
  "station": "Chingford",
  "_id": {
    "$oid": "544a4970383bc47d227a28e8"
  }
}
{
  "loc": {
    "coordinates": [
      -0.16943152489582,
      51.309275002404
    ],
    "type": "Point"
  },
  "station": "Chipstead",
  "_id": {
    "$oid": "544a4970383bc47d227a28e9"
  }
}
{
  "loc": {
    "coordinates": [
      0.057506196205783,
      51.40559840083
    ],
    "type": "Point"
  },
  "station": "Chislehurst",
  "_id": {
    "$oid": "544a4970383bc47d227a28ea"
  }
}
{
  "loc": {
    "coordinates": [
      -0.2669989236265,
      51.480781526773
    ],
    "type": "Point"
  },
  "station": "Chiswick",
  "_id": {
    "$oid": "544a4970383bc47d227a28eb"
  }
}
{
  "loc": {
    "coordinates": [
      -0.26772251965492,
      51.494370746332
    ],
    "type": "Point"
  },
  "station": "Chiswick Park",
  "_id": {
    "$oid": "544a4970383bc47d227a28ec"
  }
}
{
  "loc": {
    "coordinates": [
      -0.51831947385278,
      51.654265989674
    ],
    "type": "Point"
  },
  "station": "Chorleywood",
  "_id": {
    "$oid": "544a4970383bc47d227a28ed"
  }
}
{
  "loc": {
    "coordinates": [
      -0.10360404036727,
      51.513935079961
    ],
    "type": "Point"
  },
  "station": "City Thameslink",
  "_id": {
    "$oid": "544a4970383bc47d227a28ee"
  }
}
{
  "loc": {
    "coordinates": [
      -0.13830051012379,
      51.4618036863
    ],
    "type": "Point"
  },
  "station": "Clapham Common",
  "_id": {
    "$oid": "544a4970383bc47d227a28ef"
  }
}
{
  "loc": {
    "coordinates": [
      -0.13245010905033,
      51.465469529402
    ],
    "type": "Point"
  },
  "station": "Clapham High Street",
  "_id": {
    "$oid": "544a4970383bc47d227a28f0"
  }
}
{
  "loc": {
    "coordinates": [
      -0.17030060907001,
      51.464366804651
    ],
    "type": "Point"
  },
  "station": "Clapham Junction",
  "_id": {
    "$oid": "544a4970383bc47d227a28f1"
  }
}
{
  "loc": {
    "coordinates": [
      -0.12989566953588,
      51.464916230409
    ],
    "type": "Point"
  },
  "station": "Clapham North",
  "_id": {
    "$oid": "544a4970383bc47d227a28f2"
  }
}
{
  "loc": {
    "coordinates": [
      -0.1479696801021,
      51.452676506748
    ],
    "type": "Point"
  },
  "station": "Clapham South",
  "_id": {
    "$oid": "544a4970383bc47d227a28f3"
  }
}
{
  "loc": {
    "coordinates": [
      -0.057475034590784,
      51.561569094453
    ],
    "type": "Point"
  },
  "station": "Clapton",
  "_id": {
    "$oid": "544a4970383bc47d227a28f4"
  }
}
{
  "loc": {
    "coordinates": [
      -0.040687716905021,
      51.408540565451
    ],
    "type": "Point"
  },
  "station": "Clock House",
  "_id": {
    "$oid": "544a4970383bc47d227a28f5"
  }
}
{
  "loc": {
    "coordinates": [
      -0.38902199845314,
      51.31834723919
    ],
    "type": "Point"
  },
  "station": "Cobham and Stoke D'Abernon",
  "_id": {
    "$oid": "544a4970383bc47d227a28f6"
  }
}
{
  "loc": {
    "coordinates": [
      -0.14990225857042,
      51.652024496788
    ],
    "type": "Point"
  },
  "station": "Cockfosters",
  "_id": {
    "$oid": "544a4970383bc47d227a28f7"
  }
}
{
  "loc": {
    "coordinates": [
      -0.25027310932225,
      51.595230546294
    ],
    "type": "Point"
  },
  "station": "Colindale",
  "_id": {
    "$oid": "544a4970383bc47d227a28f8"
  }
}
{
  "loc": {
    "coordinates": [
      -0.17740072104762,
      51.418759208995
    ],
    "type": "Point"
  },
  "station": "Colliers Wood",
  "_id": {
    "$oid": "544a4970383bc47d227a28f9"
  }
}
{
  "loc": {
    "coordinates": [
      -0.1378887436247,
      51.315800960535
    ],
    "type": "Point"
  },
  "station": "Coulsdon South",
  "_id": {
    "$oid": "544a4970383bc47d227a28fa"
  }
}
{
  "loc": {
    "coordinates": [
      -0.1244924862088,
      51.512760249622
    ],
    "type": "Point"
  },
  "station": "Covent Garden",
  "_id": {
    "$oid": "544a4970383bc47d227a28fb"
  }
}
{
  "loc": {
    "coordinates": [
      0.17851710444575,
      51.448546734577
    ],
    "type": "Point"
  },
  "station": "Crayford",
  "_id": {
    "$oid": "544a4970383bc47d227a28fc"
  }
}
{
  "loc": {
    "coordinates": [
      -0.10682963790553,
      51.684474623566
    ],
    "type": "Point"
  },
  "station": "Crews Hill",
  "_id": {
    "$oid": "544a4970383bc47d227a28fd"
  }
}
{
  "loc": {
    "coordinates": [
      -0.21253351132178,
      51.558422694084
    ],
    "type": "Point"
  },
  "station": "Cricklewood",
  "_id": {
    "$oid": "544a4970383bc47d227a28fe"
  }
}
{
  "loc": {
    "coordinates": [
      -0.036532191514461,
      51.455179296249
    ],
    "type": "Point"
  },
  "station": "Crofton Park",
  "_id": {
    "$oid": "544a4970383bc47d227a28ff"
  }
}
{
  "loc": {
    "coordinates": [
      -0.014918409980624,
      51.495839980525
    ],
    "type": "Point"
  },
  "station": "Crossharbour and London Arena",
  "_id": {
    "$oid": "544a4970383bc47d227a2900"
  }
}
{
  "loc": {
    "coordinates": [
      -0.11711885796196,
      51.571327111387
    ],
    "type": "Point"
  },
  "station": "Crouch Hill",
  "_id": {
    "$oid": "544a4970383bc47d227a2901"
  }
}
{
  "loc": {
    "coordinates": [
      -0.44158934771671,
      51.647005333911
    ],
    "type": "Point"
  },
  "station": "Croxley",
  "_id": {
    "$oid": "544a4970383bc47d227a2902"
  }
}
{
  "loc": {
    "coordinates": [
      -0.072592854062748,
      51.418170359941
    ],
    "type": "Point"
  },
  "station": "Crystal Palace",
  "_id": {
    "$oid": "544a4970383bc47d227a2903"
  }
}
{
  "loc": {
    "coordinates": [
      0.025786917726712,
      51.509622053058
    ],
    "type": "Point"
  },
  "station": "Custom House",
  "_id": {
    "$oid": "544a4970383bc47d227a2904"
  }
}
{
  "loc": {
    "coordinates": [
      -0.01056746798363,
      51.481944468688
    ],
    "type": "Point"
  },
  "station": "Cutty Sark for Maritime Greenwich",
  "_id": {
    "$oid": "544a4970383bc47d227a2905"
  }
}
{
  "loc": {
    "coordinates": [
      0.063855162939039,
      51.508526572883
    ],
    "type": "Point"
  },
  "station": "Cyprus",
  "_id": {
    "$oid": "544a4970383bc47d227a2906"
  }
}
{
  "loc": {
    "coordinates": [
      0.14504542671488,
      51.526287178504
    ],
    "type": "Point"
  },
  "station": "Dagenham Dock",
  "_id": {
    "$oid": "544a4970383bc47d227a2907"
  }
}
{
  "loc": {
    "coordinates": [
      0.16584784999223,
      51.544187318113
    ],
    "type": "Point"
  },
  "station": "Dagenham East",
  "_id": {
    "$oid": "544a4970383bc47d227a2908"
  }
}
{
  "loc": {
    "coordinates": [
      0.14769413756505,
      51.541211772284
    ],
    "type": "Point"
  },
  "station": "Dagenham Heathway",
  "_id": {
    "$oid": "544a4970383bc47d227a2909"
  }
}
{
  "loc": {
    "coordinates": [
      -0.07497978585502,
      51.546093724339
    ],
    "type": "Point"
  },
  "station": "Dalston Junction",
  "_id": {
    "$oid": "544a4970383bc47d227a290a"
  }
}
{
  "loc": {
    "coordinates": [
      -0.076212502172009,
      51.548667827094
    ],
    "type": "Point"
  },
  "station": "Dalston Kingsland",
  "_id": {
    "$oid": "544a4970383bc47d227a290b"
  }
}
{
  "loc": {
    "coordinates": [
      0.21809793611023,
      51.447399615703
    ],
    "type": "Point"
  },
  "station": "Dartford",
  "_id": {
    "$oid": "544a4970383bc47d227a290c"
  }
}
{
  "loc": {
    "coordinates": [
      0.083815925291538,
      51.645491990883
    ],
    "type": "Point"
  },
  "station": "Debden",
  "_id": {
    "$oid": "544a4970383bc47d227a290d"
  }
}
{
  "loc": {
    "coordinates": [
      -0.090973475173744,
      51.468200650033
    ],
    "type": "Point"
  },
  "station": "Denmark Hill",
  "_id": {
    "$oid": "544a4970383bc47d227a290e"
  }
}
{
  "loc": {
    "coordinates": [
      -0.026181921788286,
      51.478890086282
    ],
    "type": "Point"
  },
  "station": "Deptford",
  "_id": {
    "$oid": "544a4970383bc47d227a290f"
  }
}
{
  "loc": {
    "coordinates": [
      -0.022038032405853,
      51.474476774061
    ],
    "type": "Point"
  },
  "station": "Deptford Bridge",
  "_id": {
    "$oid": "544a4970383bc47d227a2910"
  }
}
{
  "loc": {
    "coordinates": [
      -0.017993342742124,
      51.522258469272
    ],
    "type": "Point"
  },
  "station": "Devons Road",
  "_id": {
    "$oid": "544a4970383bc47d227a2911"
  }
}
{
  "loc": {
    "coordinates": [
      -0.23878334100376,
      51.551850619529
    ],
    "type": "Point"
  },
  "station": "Dollis Hill",
  "_id": {
    "$oid": "544a4970383bc47d227a2912"
  }
}
{
  "loc": {
    "coordinates": [
      -0.32959685045955,
      51.516004715297
    ],
    "type": "Point"
  },
  "station": "Drayton Green",
  "_id": {
    "$oid": "544a4970383bc47d227a2913"
  }
}
{
  "loc": {
    "coordinates": [
      -0.10575577858654,
      51.553078319423
    ],
    "type": "Point"
  },
  "station": "Drayton Park",
  "_id": {
    "$oid": "544a4970383bc47d227a2914"
  }
}
{
  "loc": {
    "coordinates": [
      -0.30199597251937,
      51.51486201146
    ],
    "type": "Point"
  },
  "station": "Ealing Broadway",
  "_id": {
    "$oid": "544a4970383bc47d227a2915"
  }
}
{
  "loc": {
    "coordinates": [
      -0.28713701041592,
      51.510248690463
    ],
    "type": "Point"
  },
  "station": "Ealing Common",
  "_id": {
    "$oid": "544a4970383bc47d227a2916"
  }
}
{
  "loc": {
    "coordinates": [
      -0.19429940765557,
      51.491356695274
    ],
    "type": "Point"
  },
  "station": "Earls Court",
  "_id": {
    "$oid": "544a4970383bc47d227a2917"
  }
}
{
  "loc": {
    "coordinates": [
      -0.18725830238926,
      51.442238829835
    ],
    "type": "Point"
  },
  "station": "Earlsfield",
  "_id": {
    "$oid": "544a4970383bc47d227a2918"
  }
}
{
  "loc": {
    "coordinates": [
      -0.2480978154307,
      51.516263444214
    ],
    "type": "Point"
  },
  "station": "East Acton",
  "_id": {
    "$oid": "544a4970383bc47d227a2919"
  }
}
{
  "loc": {
    "coordinates": [
      -0.091849130629116,
      51.37571611266
    ],
    "type": "Point"
  },
  "station": "East Croydon",
  "_id": {
    "$oid": "544a4970383bc47d227a291a"
  }
}
{
  "loc": {
    "coordinates": [
      -0.080422179162408,
      51.461625592168
    ],
    "type": "Point"
  },
  "station": "East Dulwich",
  "_id": {
    "$oid": "544a4970383bc47d227a291b"
  }
}
{
  "loc": {
    "coordinates": [
      -0.16472945405368,
      51.587332564437
    ],
    "type": "Point"
  },
  "station": "East Finchley",
  "_id": {
    "$oid": "544a4970383bc47d227a291c"
  }
}
{
  "loc": {
    "coordinates": [
      0.051530710126145,
      51.539246158049
    ],
    "type": "Point"
  },
  "station": "East Ham",
  "_id": {
    "$oid": "544a4970383bc47d227a291d"
  }
}
{
  "loc": {
    "coordinates": [
      -0.0023559243798497,
      51.508684006054
    ],
    "type": "Point"
  },
  "station": "East India",
  "_id": {
    "$oid": "544a4970383bc47d227a291e"
  }
}
{
  "loc": {
    "coordinates": [
      -0.21098384278422,
      51.458879808899
    ],
    "type": "Point"
  },
  "station": "East Putney",
  "_id": {
    "$oid": "544a4970383bc47d227a291f"
  }
}
{
  "loc": {
    "coordinates": [
      -0.39680887105797,
      51.576551871493
    ],
    "type": "Point"
  },
  "station": "Eastcote",
  "_id": {
    "$oid": "544a4970383bc47d227a2920"
  }
}
{
  "loc": {
    "coordinates": [
      -0.026655345425249,
      51.390796105685
    ],
    "type": "Point"
  },
  "station": "Eden Park",
  "_id": {
    "$oid": "544a4970383bc47d227a2921"
  }
}
{
  "loc": {
    "coordinates": [
      -0.27507922607818,
      51.614229655466
    ],
    "type": "Point"
  },
  "station": "Edgware",
  "_id": {
    "$oid": "544a4970383bc47d227a2922"
  }
}
{
  "loc": {
    "coordinates": [
      -0.17052514070378,
      51.520645381678
    ],
    "type": "Point"
  },
  "station": "Edgware Road (Bakerloo)",
  "_id": {
    "$oid": "544a4970383bc47d227a2923"
  }
}
{
  "loc": {
    "coordinates": [
      -0.1676538436008,
      51.51999806318
    ],
    "type": "Point"
  },
  "station": "Edgware Road (Circle/District/Hammersmith and City)",
  "_id": {
    "$oid": "544a4970383bc47d227a2924"
  }
}
{
  "loc": {
    "coordinates": [
      -0.061624575457523,
      51.625115709648
    ],
    "type": "Point"
  },
  "station": "Edmonton Green",
  "_id": {
    "$oid": "544a4970383bc47d227a2925"
  }
}
{
  "loc": {
    "coordinates": [
      -0.10072431173602,
      51.495849394281
    ],
    "type": "Point"
  },
  "station": "Elephant and Castle",
  "_id": {
    "$oid": "544a4970383bc47d227a2926"
  }
}
{
  "loc": {
    "coordinates": [
      0.19726710182967,
      51.549124559422
    ],
    "type": "Point"
  },
  "station": "Elm Park",
  "_id": {
    "$oid": "544a4970383bc47d227a2927"
  }
}
{
  "loc": {
    "coordinates": [
      -0.049449459806297,
      51.398291114164
    ],
    "type": "Point"
  },
  "station": "Elmers End",
  "_id": {
    "$oid": "544a4970383bc47d227a2928"
  }
}
{
  "loc": {
    "coordinates": [
      0.044243721084371,
      51.417080625514
    ],
    "type": "Point"
  },
  "station": "Elmstead Woods",
  "_id": {
    "$oid": "544a4970383bc47d227a2929"
  }
}
{
  "loc": {
    "coordinates": [
      -0.27981416681958,
      51.652875609998
    ],
    "type": "Point"
  },
  "station": "Elstree and Borehamwood",
  "_id": {
    "$oid": "544a4970383bc47d227a292a"
  }
}
{
  "loc": {
    "coordinates": [
      0.052343698204214,
      51.455662213853
    ],
    "type": "Point"
  },
  "station": "Eltham",
  "_id": {
    "$oid": "544a4970383bc47d227a292b"
  }
}
{
  "loc": {
    "coordinates": [
      -0.016801981736488,
      51.468372191483
    ],
    "type": "Point"
  },
  "station": "Elverson Road",
  "_id": {
    "$oid": "544a4970383bc47d227a292c"
  }
}
{
  "loc": {
    "coordinates": [
      -0.12235292981979,
      51.507312509276
    ],
    "type": "Point"
  },
  "station": "Embankment",
  "_id": {
    "$oid": "544a4970383bc47d227a292d"
  }
}
{
  "loc": {
    "coordinates": [
      0.22023736048149,
      51.569114881318
    ],
    "type": "Point"
  },
  "station": "Emerson Park",
  "_id": {
    "$oid": "544a4970383bc47d227a292e"
  }
}
{
  "loc": {
    "coordinates": [
      -0.090689752730328,
      51.652722121848
    ],
    "type": "Point"
  },
  "station": "Enfield Chase",
  "_id": {
    "$oid": "544a4970383bc47d227a292f"
  }
}
{
  "loc": {
    "coordinates": [
      -0.02837661157186,
      51.670846125012
    ],
    "type": "Point"
  },
  "station": "Enfield Lock",
  "_id": {
    "$oid": "544a4970383bc47d227a2930"
  }
}
{
  "loc": {
    "coordinates": [
      -0.079315469569566,
      51.651970081543
    ],
    "type": "Point"
  },
  "station": "Enfield Town",
  "_id": {
    "$oid": "544a4970383bc47d227a2931"
  }
}
{
  "loc": {
    "coordinates": [
      0.11384001852178,
      51.69368615157
    ],
    "type": "Point"
  },
  "station": "Epping",
  "_id": {
    "$oid": "544a4970383bc47d227a2932"
  }
}
{
  "loc": {
    "coordinates": [
      -0.23895587775184,
      51.323659467583
    ],
    "type": "Point"
  },
  "station": "Epsom Downs",
  "_id": {
    "$oid": "544a4970383bc47d227a2933"
  }
}
{
  "loc": {
    "coordinates": [
      0.17427568781302,
      51.481647653094
    ],
    "type": "Point"
  },
  "station": "Erith",
  "_id": {
    "$oid": "544a4970383bc47d227a2934"
  }
}
{
  "loc": {
    "coordinates": [
      -0.096351108662094,
      51.540633322162
    ],
    "type": "Point"
  },
  "station": "Essex Road",
  "_id": {
    "$oid": "544a4970383bc47d227a2935"
  }
}
{
  "loc": {
    "coordinates": [
      -0.13328205840994,
      51.528664346375
    ],
    "type": "Point"
  },
  "station": "Euston",
  "_id": {
    "$oid": "544a4970383bc47d227a2936"
  }
}
{
  "loc": {
    "coordinates": [
      -0.13328205840994,
      51.528664346375
    ],
    "type": "Point"
  },
  "station": "Euston Square",
  "_id": {
    "$oid": "544a4970383bc47d227a2937"
  }
}
{
  "loc": {
    "coordinates": [
      -0.24148864560939,
      51.345243905271
    ],
    "type": "Point"
  },
  "station": "Ewell East",
  "_id": {
    "$oid": "544a4970383bc47d227a2938"
  }
}
{
  "loc": {
    "coordinates": [
      -0.25707477581385,
      51.349991173131
    ],
    "type": "Point"
  },
  "station": "Ewell West",
  "_id": {
    "$oid": "544a4970383bc47d227a2939"
  }
}
{
  "loc": {
    "coordinates": [
      0.090607714208087,
      51.59610953153
    ],
    "type": "Point"
  },
  "station": "Fairlop",
  "_id": {
    "$oid": "544a4970383bc47d227a293a"
  }
}
{
  "loc": {
    "coordinates": [
      0.078524084551238,
      51.459085786225
    ],
    "type": "Point"
  },
  "station": "Falconwood",
  "_id": {
    "$oid": "544a4970383bc47d227a293b"
  }
}
{
  "loc": {
    "coordinates": [
      -0.10482865117184,
      51.520195700647
    ],
    "type": "Point"
  },
  "station": "Farringdon",
  "_id": {
    "$oid": "544a4970383bc47d227a293c"
  }
}
{
  "loc": {
    "coordinates": [
      -0.40981009327567,
      51.44787922275
    ],
    "type": "Point"
  },
  "station": "Feltham",
  "_id": {
    "$oid": "544a4970383bc47d227a293d"
  }
}
{
  "loc": {
    "coordinates": [
      -0.078539744740966,
      51.511566715013
    ],
    "type": "Point"
  },
  "station": "Fenchurch Street",
  "_id": {
    "$oid": "544a4970383bc47d227a293e"
  }
}
{
  "loc": {
    "coordinates": [
      -0.19320620063466,
      51.600903273752
    ],
    "type": "Point"
  },
  "station": "Finchley Central",
  "_id": {
    "$oid": "544a4970383bc47d227a293f"
  }
}
{
  "loc": {
    "coordinates": [
      -0.18003614128656,
      51.547096220268
    ],
    "type": "Point"
  },
  "station": "Finchley Road",
  "_id": {
    "$oid": "544a4970383bc47d227a2940"
  }
}
{
  "loc": {
    "coordinates": [
      -0.18363678247277,
      51.550119520279
    ],
    "type": "Point"
  },
  "station": "Finchley Road and Frognal",
  "_id": {
    "$oid": "544a4970383bc47d227a2941"
  }
}
{
  "loc": {
    "coordinates": [
      -0.10586706135916,
      51.564635458062
    ],
    "type": "Point"
  },
  "station": "Finsbury Park",
  "_id": {
    "$oid": "544a4970383bc47d227a2942"
  }
}
{
  "loc": {
    "coordinates": [
      0.024203511499168,
      51.54931611531
    ],
    "type": "Point"
  },
  "station": "Forest Gate",
  "_id": {
    "$oid": "544a4970383bc47d227a2943"
  }
}
{
  "loc": {
    "coordinates": [
      -0.053314119078799,
      51.439308318386
    ],
    "type": "Point"
  },
  "station": "Forest Hill",
  "_id": {
    "$oid": "544a4970383bc47d227a2944"
  }
}
{
  "loc": {
    "coordinates": [
      -0.19552976561085,
      51.480260927016
    ],
    "type": "Point"
  },
  "station": "Fulham Broadway",
  "_id": {
    "$oid": "544a4970383bc47d227a2945"
  }
}
{
  "loc": {
    "coordinates": [
      -0.34942414136408,
      51.433942607741
    ],
    "type": "Point"
  },
  "station": "Fulwell",
  "_id": {
    "$oid": "544a4970383bc47d227a2946"
  }
}
{
  "loc": {
    "coordinates": [
      0.071789801687878,
      51.509034130657
    ],
    "type": "Point"
  },
  "station": "Gallions Reach",
  "_id": {
    "$oid": "544a4970383bc47d227a2947"
  }
}
{
  "loc": {
    "coordinates": [
      0.066098526398209,
      51.576552943422
    ],
    "type": "Point"
  },
  "station": "Gants Hill",
  "_id": {
    "$oid": "544a4970383bc47d227a2948"
  }
}
{
  "loc": {
    "coordinates": [
      0.20599141081423,
      51.581865720882
    ],
    "type": "Point"
  },
  "station": "Gidea Park",
  "_id": {
    "$oid": "544a4970383bc47d227a2949"
  }
}
{
  "loc": {
    "coordinates": [
      -0.083820786846549,
      51.424469532451
    ],
    "type": "Point"
  },
  "station": "Gipsy Hill",
  "_id": {
    "$oid": "544a4970383bc47d227a294a"
  }
}
{
  "loc": {
    "coordinates": [
      -0.18352915689619,
      51.494499579725
    ],
    "type": "Point"
  },
  "station": "Gloucester Road",
  "_id": {
    "$oid": "544a4970383bc47d227a294b"
  }
}
{
  "loc": {
    "coordinates": [
      -0.19482013198437,
      51.572215556655
    ],
    "type": "Point"
  },
  "station": "Golders Green",
  "_id": {
    "$oid": "544a4970383bc47d227a294c"
  }
}
{
  "loc": {
    "coordinates": [
      -0.22738960127533,
      51.502076993967
    ],
    "type": "Point"
  },
  "station": "Goldhawk Road",
  "_id": {
    "$oid": "544a4970383bc47d227a294d"
  }
}
{
  "loc": {
    "coordinates": [
      -0.13479327927061,
      51.520613125487
    ],
    "type": "Point"
  },
  "station": "Goodge Street",
  "_id": {
    "$oid": "544a4970383bc47d227a294e"
  }
}
{
  "loc": {
    "coordinates": [
      0.11174407958328,
      51.566180968146
    ],
    "type": "Point"
  },
  "station": "Goodmayes",
  "_id": {
    "$oid": "544a4970383bc47d227a294f"
  }
}
{
  "loc": {
    "coordinates": [
      -0.09445884360504,
      51.663502248565
    ],
    "type": "Point"
  },
  "station": "Gordon Hill",
  "_id": {
    "$oid": "544a4970383bc47d227a2950"
  }
}
{
  "loc": {
    "coordinates": [
      -0.15128661069808,
      51.555405311264
    ],
    "type": "Point"
  },
  "station": "Gospel Oak",
  "_id": {
    "$oid": "544a4970383bc47d227a2951"
  }
}
{
  "loc": {
    "coordinates": [
      0.092286969949084,
      51.613480413753
    ],
    "type": "Point"
  },
  "station": "Grange Hill",
  "_id": {
    "$oid": "544a4970383bc47d227a2952"
  }
}
{
  "loc": {
    "coordinates": [
      -0.09729997426098,
      51.642623088692
    ],
    "type": "Point"
  },
  "station": "Grange Park",
  "_id": {
    "$oid": "544a4970383bc47d227a2953"
  }
}
{
  "loc": {
    "coordinates": [
      -0.14394701338886,
      51.52378881305
    ],
    "type": "Point"
  },
  "station": "Great Portland Street",
  "_id": {
    "$oid": "544a4970383bc47d227a2954"
  }
}
{
  "loc": {
    "coordinates": [
      -0.14246316907526,
      51.506760501463
    ],
    "type": "Point"
  },
  "station": "Green Park",
  "_id": {
    "$oid": "544a4970383bc47d227a2955"
  }
}
{
  "loc": {
    "coordinates": [
      -0.34586432267848,
      51.541980112836
    ],
    "type": "Point"
  },
  "station": "Greenford",
  "_id": {
    "$oid": "544a4970383bc47d227a2956"
  }
}
{
  "loc": {
    "coordinates": [
      -0.014848686252722,
      51.477547665535
    ],
    "type": "Point"
  },
  "station": "Greenwich",
  "_id": {
    "$oid": "544a4970383bc47d227a2957"
  }
}
{
  "loc": {
    "coordinates": [
      0.022612884710894,
      51.430432640396
    ],
    "type": "Point"
  },
  "station": "Grove Park",
  "_id": {
    "$oid": "544a4970383bc47d227a2958"
  }
}
{
  "loc": {
    "coordinates": [
      -0.27514973411264,
      51.491863444709
    ],
    "type": "Point"
  },
  "station": "Gunnersbury",
  "_id": {
    "$oid": "544a4970383bc47d227a2959"
  }
}
{
  "loc": {
    "coordinates": [
      -0.15386483218978,
      51.377860917901
    ],
    "type": "Point"
  },
  "station": "Hackbridge",
  "_id": {
    "$oid": "544a4970383bc47d227a295a"
  }
}
{
  "loc": {
    "coordinates": [
      -0.055575092639468,
      51.547257451286
    ],
    "type": "Point"
  },
  "station": "Hackney Central",
  "_id": {
    "$oid": "544a4970383bc47d227a295b"
  }
}
{
  "loc": {
    "coordinates": [
      -0.060170685150219,
      51.549078092042
    ],
    "type": "Point"
  },
  "station": "Hackney Downs",
  "_id": {
    "$oid": "544a4970383bc47d227a295c"
  }
}
{
  "loc": {
    "coordinates": [
      -0.025245084630728,
      51.543558409072
    ],
    "type": "Point"
  },
  "station": "Hackney Wick",
  "_id": {
    "$oid": "544a4970383bc47d227a295d"
  }
}
{
  "loc": {
    "coordinates": [
      -0.17656673195017,
      51.668402892286
    ],
    "type": "Point"
  },
  "station": "Hadley Wood",
  "_id": {
    "$oid": "544a4970383bc47d227a295e"
  }
}
{
  "loc": {
    "coordinates": [
      -0.075580841462924,
      51.538684738939
    ],
    "type": "Point"
  },
  "station": "Haggerston",
  "_id": {
    "$oid": "544a4970383bc47d227a295f"
  }
}
{
  "loc": {
    "coordinates": [
      0.094122987217226,
      51.602845314928
    ],
    "type": "Point"
  },
  "station": "Hainault",
  "_id": {
    "$oid": "544a4970383bc47d227a2960"
  }
}
{
  "loc": {
    "coordinates": [
      -0.22284652701972,
      51.491819802914
    ],
    "type": "Point"
  },
  "station": "Hammersmith (District)",
  "_id": {
    "$oid": "544a4970383bc47d227a2961"
  }
}
{
  "loc": {
    "coordinates": [
      -0.22462575515926,
      51.493483379174
    ],
    "type": "Point"
  },
  "station": "Hammersmith (Met.)",
  "_id": {
    "$oid": "544a4970383bc47d227a2962"
  }
}
{
  "loc": {
    "coordinates": [
      -0.17800013773286,
      51.556542616677
    ],
    "type": "Point"
  },
  "station": "Hampstead",
  "_id": {
    "$oid": "544a4970383bc47d227a2963"
  }
}
{
  "loc": {
    "coordinates": [
      -0.16455176144825,
      51.555199944256
    ],
    "type": "Point"
  },
  "station": "Hampstead Heath",
  "_id": {
    "$oid": "544a4970383bc47d227a2964"
  }
}
{
  "loc": {
    "coordinates": [
      -0.37212087604547,
      51.415879597557
    ],
    "type": "Point"
  },
  "station": "Hampton",
  "_id": {
    "$oid": "544a4970383bc47d227a2965"
  }
}
{
  "loc": {
    "coordinates": [
      -0.34274277866957,
      51.40229391894
    ],
    "type": "Point"
  },
  "station": "Hampton Court",
  "_id": {
    "$oid": "544a4970383bc47d227a2966"
  }
}
{
  "loc": {
    "coordinates": [
      -0.31308923226487,
      51.414640080192
    ],
    "type": "Point"
  },
  "station": "Hampton Wick",
  "_id": {
    "$oid": "544a4970383bc47d227a2967"
  }
}
{
  "loc": {
    "coordinates": [
      -0.29298173181915,
      51.530072069094
    ],
    "type": "Point"
  },
  "station": "Hanger Lane",
  "_id": {
    "$oid": "544a4970383bc47d227a2968"
  }
}
{
  "loc": {
    "coordinates": [
      -0.33803747641273,
      51.512185998837
    ],
    "type": "Point"
  },
  "station": "Hanwell",
  "_id": {
    "$oid": "544a4970383bc47d227a2969"
  }
}
{
  "loc": {
    "coordinates": [
      -0.25748125850322,
      51.536258358843
    ],
    "type": "Point"
  },
  "station": "Harlesden",
  "_id": {
    "$oid": "544a4970383bc47d227a296a"
  }
}
{
  "loc": {
    "coordinates": [
      0.2342185071783,
      51.593202188506
    ],
    "type": "Point"
  },
  "station": "Harold Wood",
  "_id": {
    "$oid": "544a4970383bc47d227a296b"
  }
}
{
  "loc": {
    "coordinates": [
      -0.10519382370901,
      51.577357921799
    ],
    "type": "Point"
  },
  "station": "Harringay",
  "_id": {
    "$oid": "544a4970383bc47d227a296c"
  }
}
{
  "loc": {
    "coordinates": [
      -0.098202962998489,
      51.57714590447
    ],
    "type": "Point"
  },
  "station": "Harringay Green Lanes",
  "_id": {
    "$oid": "544a4970383bc47d227a296d"
  }
}
{
  "loc": {
    "coordinates": [
      -0.33423825163137,
      51.592594673236
    ],
    "type": "Point"
  },
  "station": "Harrow and Wealdstone",
  "_id": {
    "$oid": "544a4970383bc47d227a296e"
  }
}
{
  "loc": {
    "coordinates": [
      -0.33698708805734,
      51.579388159582
    ],
    "type": "Point"
  },
  "station": "Harrow-on-the-Hill",
  "_id": {
    "$oid": "544a4970383bc47d227a296f"
  }
}
{
  "loc": {
    "coordinates": [
      -0.36916434211502,
      51.609828548789
    ],
    "type": "Point"
  },
  "station": "Hatch End",
  "_id": {
    "$oid": "544a4970383bc47d227a2970"
  }
}
{
  "loc": {
    "coordinates": [
      -0.42336616986103,
      51.466685355642
    ],
    "type": "Point"
  },
  "station": "Hatton Cross",
  "_id": {
    "$oid": "544a4970383bc47d227a2971"
  }
}
{
  "loc": {
    "coordinates": [
      -0.18891497843117,
      51.425457340854
    ],
    "type": "Point"
  },
  "station": "Haydons Road",
  "_id": {
    "$oid": "544a4970383bc47d227a2972"
  }
}
{
  "loc": {
    "coordinates": [
      0.010157017878448,
      51.37573670506
    ],
    "type": "Point"
  },
  "station": "Hayes",
  "_id": {
    "$oid": "544a4970383bc47d227a2973"
  }
}
{
  "loc": {
    "coordinates": [
      -0.42062749859031,
      51.50304912563
    ],
    "type": "Point"
  },
  "station": "Hayes and Harlington",
  "_id": {
    "$oid": "544a4970383bc47d227a2974"
  }
}
{
  "loc": {
    "coordinates": [
      -0.35689307782418,
      51.602499669538
    ],
    "type": "Point"
  },
  "station": "Headstone Lane",
  "_id": {
    "$oid": "544a4970383bc47d227a2975"
  }
}
{
  "loc": {
    "coordinates": [
      -0.44771519861354,
      51.45978048411
    ],
    "type": "Point"
  },
  "station": "Heathrow Terminal 4",
  "_id": {
    "$oid": "544a4970383bc47d227a2976"
  }
}
{
  "loc": {
    "coordinates": [
      -0.49063310869077,
      51.470025485584
    ],
    "type": "Point"
  },
  "station": "Heathrow Terminal 5",
  "_id": {
    "$oid": "544a4970383bc47d227a2977"
  }
}
{
  "loc": {
    "coordinates": [
      -0.45239283063262,
      51.47128945567
    ],
    "type": "Point"
  },
  "station": "Heathrow Terminals 1 2 3",
  "_id": {
    "$oid": "544a4970383bc47d227a2978"
  }
}
{
  "loc": {
    "coordinates": [
      -0.23861609099829,
      51.580075012022
    ],
    "type": "Point"
  },
  "station": "Hendon",
  "_id": {
    "$oid": "544a4970383bc47d227a2979"
  }
}
{
  "loc": {
    "coordinates": [
      -0.2267197095034,
      51.583133074092
    ],
    "type": "Point"
  },
  "station": "Hendon Central",
  "_id": {
    "$oid": "544a4970383bc47d227a297a"
  }
}
{
  "loc": {
    "coordinates": [
      -0.10254851838021,
      51.453991381788
    ],
    "type": "Point"
  },
  "station": "Herne Hill",
  "_id": {
    "$oid": "544a4970383bc47d227a297b"
  }
}
{
  "loc": {
    "coordinates": [
      -0.021939126563571,
      51.503386571015
    ],
    "type": "Point"
  },
  "station": "Heron Quays",
  "_id": {
    "$oid": "544a4970383bc47d227a297c"
  }
}
{
  "loc": {
    "coordinates": [
      -0.19415092780429,
      51.651688276705
    ],
    "type": "Point"
  },
  "station": "High Barnet",
  "_id": {
    "$oid": "544a4970383bc47d227a297d"
  }
}
{
  "loc": {
    "coordinates": [
      -0.19155165303998,
      51.500729468384
    ],
    "type": "Point"
  },
  "station": "High Street Kensington",
  "_id": {
    "$oid": "544a4970383bc47d227a297e"
  }
}
{
  "loc": {
    "coordinates": [
      -0.00012084723573169,
      51.608355993014
    ],
    "type": "Point"
  },
  "station": "Highams Park",
  "_id": {
    "$oid": "544a4970383bc47d227a297f"
  }
}
{
  "loc": {
    "coordinates": [
      -0.10406772078143,
      51.546495518926
    ],
    "type": "Point"
  },
  "station": "Highbury and Islington",
  "_id": {
    "$oid": "544a4970383bc47d227a2980"
  }
}
{
  "loc": {
    "coordinates": [
      -0.14692043327249,
      51.57764663481
    ],
    "type": "Point"
  },
  "station": "Highgate",
  "_id": {
    "$oid": "544a4970383bc47d227a2981"
  }
}
{
  "loc": {
    "coordinates": [
      -0.44988357245777,
      51.55377757066
    ],
    "type": "Point"
  },
  "station": "Hillingdon",
  "_id": {
    "$oid": "544a4970383bc47d227a2982"
  }
}
{
  "loc": {
    "coordinates": [
      -0.00095652287067613,
      51.452401721767
    ],
    "type": "Point"
  },
  "station": "Hither Green",
  "_id": {
    "$oid": "544a4970383bc47d227a2983"
  }
}
{
  "loc": {
    "coordinates": [
      -0.11982609759457,
      51.517235749261
    ],
    "type": "Point"
  },
  "station": "Holborn",
  "_id": {
    "$oid": "544a4970383bc47d227a2984"
  }
}
{
  "loc": {
    "coordinates": [
      -0.20654337129402,
      51.507146508744
    ],
    "type": "Point"
  },
  "station": "Holland Park",
  "_id": {
    "$oid": "544a4970383bc47d227a2985"
  }
}
{
  "loc": {
    "coordinates": [
      -0.11292127587712,
      51.55281611672
    ],
    "type": "Point"
  },
  "station": "Holloway Road",
  "_id": {
    "$oid": "544a4970383bc47d227a2986"
  }
}
{
  "loc": {
    "coordinates": [
      -0.038497927971748,
      51.546595450822
    ],
    "type": "Point"
  },
  "station": "Homerton",
  "_id": {
    "$oid": "544a4970383bc47d227a2987"
  }
}
{
  "loc": {
    "coordinates": [
      -0.044138732242293,
      51.450648245652
    ],
    "type": "Point"
  },
  "station": "Honor Oak Park",
  "_id": {
    "$oid": "544a4970383bc47d227a2988"
  }
}
{
  "loc": {
    "coordinates": [
      0.21894141805997,
      51.554355082156
    ],
    "type": "Point"
  },
  "station": "Hornchurch",
  "_id": {
    "$oid": "544a4970383bc47d227a2989"
  }
}
{
  "loc": {
    "coordinates": [
      -0.11180120639571,
      51.586474864733
    ],
    "type": "Point"
  },
  "station": "Hornsey",
  "_id": {
    "$oid": "544a4970383bc47d227a298a"
  }
}
{
  "loc": {
    "coordinates": [
      -0.36178186366717,
      51.46250486146
    ],
    "type": "Point"
  },
  "station": "Hounslow",
  "_id": {
    "$oid": "544a4970383bc47d227a298b"
  }
}
{
  "loc": {
    "coordinates": [
      -0.36594373417825,
      51.470925810282
    ],
    "type": "Point"
  },
  "station": "Hounslow Central",
  "_id": {
    "$oid": "544a4970383bc47d227a298c"
  }
}
{
  "loc": {
    "coordinates": [
      -0.35526092596841,
      51.473707937461
    ],
    "type": "Point"
  },
  "station": "Hounslow East",
  "_id": {
    "$oid": "544a4970383bc47d227a298d"
  }
}
{
  "loc": {
    "coordinates": [
      -0.38569323300198,
      51.473105762632
    ],
    "type": "Point"
  },
  "station": "Hounslow West",
  "_id": {
    "$oid": "544a4970383bc47d227a298e"
  }
}
{
  "loc": {
    "coordinates": [
      -0.075571232880956,
      51.531391621283
    ],
    "type": "Point"
  },
  "station": "Hoxton",
  "_id": {
    "$oid": "544a4970383bc47d227a298f"
  }
}
{
  "loc": {
    "coordinates": [
      -0.15245970877887,
      51.502584030904
    ],
    "type": "Point"
  },
  "station": "Hyde Park Corner",
  "_id": {
    "$oid": "544a4970383bc47d227a2990"
  }
}
{
  "loc": {
    "coordinates": [
      -0.44156508942605,
      51.560825107127
    ],
    "type": "Point"
  },
  "station": "Ickenham",
  "_id": {
    "$oid": "544a4970383bc47d227a2991"
  }
}
{
  "loc": {
    "coordinates": [
      0.06869961398625,
      51.559142232556
    ],
    "type": "Point"
  },
  "station": "Ilford",
  "_id": {
    "$oid": "544a4970383bc47d227a2992"
  }
}
{
  "loc": {
    "coordinates": [
      -0.18282310826897,
      51.474938948929
    ],
    "type": "Point"
  },
  "station": "Imperial Wharf",
  "_id": {
    "$oid": "544a4970383bc47d227a2993"
  }
}
{
  "loc": {
    "coordinates": [
      -0.010478902499309,
      51.487950088882
    ],
    "type": "Point"
  },
  "station": "Island Gardens",
  "_id": {
    "$oid": "544a4970383bc47d227a2994"
  }
}
{
  "loc": {
    "coordinates": [
      -0.33731436875817,
      51.475037464523
    ],
    "type": "Point"
  },
  "station": "Isleworth",
  "_id": {
    "$oid": "544a4970383bc47d227a2995"
  }
}
{
  "loc": {
    "coordinates": [
      -0.10120536334161,
      51.324600324285
    ],
    "type": "Point"
  },
  "station": "Kenley",
  "_id": {
    "$oid": "544a4970383bc47d227a2996"
  }
}
{
  "loc": {
    "coordinates": [
      -0.10505621257104,
      51.488662470707
    ],
    "type": "Point"
  },
  "station": "Kennington",
  "_id": {
    "$oid": "544a4970383bc47d227a2997"
  }
}
{
  "loc": {
    "coordinates": [
      -0.22469897011847,
      51.530524241234
    ],
    "type": "Point"
  },
  "station": "Kensal Green",
  "_id": {
    "$oid": "544a4970383bc47d227a2998"
  }
}
{
  "loc": {
    "coordinates": [
      -0.22080656353585,
      51.53421509119
    ],
    "type": "Point"
  },
  "station": "Kensal Rise",
  "_id": {
    "$oid": "544a4970383bc47d227a2999"
  }
}
{
  "loc": {
    "coordinates": [
      -0.21036483866639,
      51.497879724483
    ],
    "type": "Point"
  },
  "station": "Kensington (Olympia)",
  "_id": {
    "$oid": "544a4970383bc47d227a299a"
  }
}
{
  "loc": {
    "coordinates": [
      -0.045801176185629,
      51.412717664303
    ],
    "type": "Point"
  },
  "station": "Kent House",
  "_id": {
    "$oid": "544a4970383bc47d227a299b"
  }
}
{
  "loc": {
    "coordinates": [
      -0.14045684366827,
      51.550009538423
    ],
    "type": "Point"
  },
  "station": "Kentish Town",
  "_id": {
    "$oid": "544a4970383bc47d227a299c"
  }
}
{
  "loc": {
    "coordinates": [
      -0.14674199079293,
      51.546547987029
    ],
    "type": "Point"
  },
  "station": "Kentish Town West",
  "_id": {
    "$oid": "544a4970383bc47d227a299d"
  }
}
{
  "loc": {
    "coordinates": [
      -0.31520243664979,
      51.581496322037
    ],
    "type": "Point"
  },
  "station": "Kenton",
  "_id": {
    "$oid": "544a4970383bc47d227a299e"
  }
}
{
  "loc": {
    "coordinates": [
      -0.28883209363752,
      51.49000465091
    ],
    "type": "Point"
  },
  "station": "Kew Bridge",
  "_id": {
    "$oid": "544a4970383bc47d227a299f"
  }
}
{
  "loc": {
    "coordinates": [
      -0.28536661446493,
      51.476789170755
    ],
    "type": "Point"
  },
  "station": "Kew Gardens",
  "_id": {
    "$oid": "544a4970383bc47d227a29a0"
  }
}
{
  "loc": {
    "coordinates": [
      0.028314631821257,
      51.462690183933
    ],
    "type": "Point"
  },
  "station": "Kidbrooke",
  "_id": {
    "$oid": "544a4970383bc47d227a29a1"
  }
}
{
  "loc": {
    "coordinates": [
      -0.20461829997264,
      51.546944459981
    ],
    "type": "Point"
  },
  "station": "Kilburn",
  "_id": {
    "$oid": "544a4970383bc47d227a29a2"
  }
}
{
  "loc": {
    "coordinates": [
      -0.19109868962017,
      51.537267764059
    ],
    "type": "Point"
  },
  "station": "Kilburn High Road",
  "_id": {
    "$oid": "544a4970383bc47d227a29a3"
  }
}
{
  "loc": {
    "coordinates": [
      -0.19395164168612,
      51.535135560206
    ],
    "type": "Point"
  },
  "station": "Kilburn Park",
  "_id": {
    "$oid": "544a4970383bc47d227a29a4"
  }
}
{
  "loc": {
    "coordinates": [
      0.062220618931645,
      51.502008599189
    ],
    "type": "Point"
  },
  "station": "King George V",
  "_id": {
    "$oid": "544a4970383bc47d227a29a5"
  }
}
{
  "loc": {
    "coordinates": [
      -0.12274200728123,
      51.53079820546
    ],
    "type": "Point"
  },
  "station": "King's Cross",
  "_id": {
    "$oid": "544a4970383bc47d227a29a6"
  }
}
{
  "loc": {
    "coordinates": [
      -0.12385771561154,
      51.530312476892
    ],
    "type": "Point"
  },
  "station": "Kings Cross St. Pancras",
  "_id": {
    "$oid": "544a4970383bc47d227a29a7"
  }
}
{
  "loc": {
    "coordinates": [
      -0.27858717715014,
      51.584876550714
    ],
    "type": "Point"
  },
  "station": "Kingsbury",
  "_id": {
    "$oid": "544a4970383bc47d227a29a8"
  }
}
{
  "loc": {
    "coordinates": [
      -0.30112666341862,
      51.412641800653
    ],
    "type": "Point"
  },
  "station": "Kingston",
  "_id": {
    "$oid": "544a4970383bc47d227a29a9"
  }
}
{
  "loc": {
    "coordinates": [
      -0.21121888607947,
      51.29472316433
    ],
    "type": "Point"
  },
  "station": "Kingswood",
  "_id": {
    "$oid": "544a4970383bc47d227a29aa"
  }
}
{
  "loc": {
    "coordinates": [
      -0.16065008131194,
      51.501354916808
    ],
    "type": "Point"
  },
  "station": "Knightsbridge",
  "_id": {
    "$oid": "544a4970383bc47d227a29ab"
  }
}
{
  "loc": {
    "coordinates": [
      0.13084539482109,
      51.345751922698
    ],
    "type": "Point"
  },
  "station": "Knockholt",
  "_id": {
    "$oid": "544a4970383bc47d227a29ac"
  }
}
{
  "loc": {
    "coordinates": [
      -0.21018376269161,
      51.517210698742
    ],
    "type": "Point"
  },
  "station": "Ladbroke Grove",
  "_id": {
    "$oid": "544a4970383bc47d227a29ad"
  }
}
{
  "loc": {
    "coordinates": [
      -0.019230010500554,
      51.45619213691
    ],
    "type": "Point"
  },
  "station": "Ladywell",
  "_id": {
    "$oid": "544a4970383bc47d227a29ae"
  }
}
{
  "loc": {
    "coordinates": [
      -0.11175385704735,
      51.499129959063
    ],
    "type": "Point"
  },
  "station": "Lambeth North",
  "_id": {
    "$oid": "544a4970383bc47d227a29af"
  }
}
{
  "loc": {
    "coordinates": [
      -0.17541552045722,
      51.511890964101
    ],
    "type": "Point"
  },
  "station": "Lancaster Gate",
  "_id": {
    "$oid": "544a4970383bc47d227a29b0"
  }
}
{
  "loc": {
    "coordinates": [
      -0.015199388573999,
      51.518883939693
    ],
    "type": "Point"
  },
  "station": "Langdon Park",
  "_id": {
    "$oid": "544a4970383bc47d227a29b1"
  }
}
{
  "loc": {
    "coordinates": [
      -0.21744525733064,
      51.513958124663
    ],
    "type": "Point"
  },
  "station": "Latimer Road",
  "_id": {
    "$oid": "544a4970383bc47d227a29b2"
  }
}
{
  "loc": {
    "coordinates": [
      0.013379080898623,
      51.449458517716
    ],
    "type": "Point"
  },
  "station": "Lee",
  "_id": {
    "$oid": "544a4970383bc47d227a29b3"
  }
}
{
  "loc": {
    "coordinates": [
      -0.12822773962177,
      51.511291196842
    ],
    "type": "Point"
  },
  "station": "Leicester Square",
  "_id": {
    "$oid": "544a4970383bc47d227a29b4"
  }
}
{
  "loc": {
    "coordinates": [
      -0.012418307529155,
      51.464880714235
    ],
    "type": "Point"
  },
  "station": "Lewisham",
  "_id": {
    "$oid": "544a4970383bc47d227a29b5"
  }
}
{
  "loc": {
    "coordinates": [
      -0.0064509088011814,
      51.55813227051
    ],
    "type": "Point"
  },
  "station": "Leyton",
  "_id": {
    "$oid": "544a4970383bc47d227a29b6"
  }
}
{
  "loc": {
    "coordinates": [
      -0.0080519210997184,
      51.569364239801
    ],
    "type": "Point"
  },
  "station": "Leyton Midland Road",
  "_id": {
    "$oid": "544a4970383bc47d227a29b7"
  }
}
{
  "loc": {
    "coordinates": [
      0.009154878018083,
      51.568522287449
    ],
    "type": "Point"
  },
  "station": "Leytonstone",
  "_id": {
    "$oid": "544a4970383bc47d227a29b8"
  }
}
{
  "loc": {
    "coordinates": [
      0.0082688934065806,
      51.563807342647
    ],
    "type": "Point"
  },
  "station": "Leytonstone High Road",
  "_id": {
    "$oid": "544a4970383bc47d227a29b9"
  }
}
{
  "loc": {
    "coordinates": [
      -0.039365669438682,
      51.512312167848
    ],
    "type": "Point"
  },
  "station": "Limehouse",
  "_id": {
    "$oid": "544a4970383bc47d227a29ba"
  }
}
{
  "loc": {
    "coordinates": [
      -0.082235212309326,
      51.517598273919
    ],
    "type": "Point"
  },
  "station": "Liverpool Street",
  "_id": {
    "$oid": "544a4970383bc47d227a29bb"
  }
}
{
  "loc": {
    "coordinates": [
      -0.085991192281661,
      51.504674357597
    ],
    "type": "Point"
  },
  "station": "London Bridge",
  "_id": {
    "$oid": "544a4970383bc47d227a29bc"
  }
}
{
  "loc": {
    "coordinates": [
      0.047887121033287,
      51.50368965775
    ],
    "type": "Point"
  },
  "station": "London City Airport",
  "_id": {
    "$oid": "544a4970383bc47d227a29bd"
  }
}
{
  "loc": {
    "coordinates": [
      -0.057685269137809,
      51.540718847663
    ],
    "type": "Point"
  },
  "station": "London Fields",
  "_id": {
    "$oid": "544a4970383bc47d227a29be"
  }
}
{
  "loc": {
    "coordinates": [
      -0.10248294761392,
      51.46667891193
    ],
    "type": "Point"
  },
  "station": "Loughborough Junction",
  "_id": {
    "$oid": "544a4970383bc47d227a29bf"
  }
}
{
  "loc": {
    "coordinates": [
      0.055293528321119,
      51.641570470369
    ],
    "type": "Point"
  },
  "station": "Loughton",
  "_id": {
    "$oid": "544a4970383bc47d227a29c0"
  }
}
{
  "loc": {
    "coordinates": [
      -0.033315960742811,
      51.424846846074
    ],
    "type": "Point"
  },
  "station": "Lower Sydenham",
  "_id": {
    "$oid": "544a4970383bc47d227a29c1"
  }
}
{
  "loc": {
    "coordinates": [
      -0.18541823310956,
      51.529995078969
    ],
    "type": "Point"
  },
  "station": "Maida Vale",
  "_id": {
    "$oid": "544a4970383bc47d227a29c2"
  }
}
{
  "loc": {
    "coordinates": [
      -0.26110604834896,
      51.384609567544
    ],
    "type": "Point"
  },
  "station": "Malden Manor",
  "_id": {
    "$oid": "544a4970383bc47d227a29c3"
  }
}
{
  "loc": {
    "coordinates": [
      -0.095670549505162,
      51.570747151453
    ],
    "type": "Point"
  },
  "station": "Manor House",
  "_id": {
    "$oid": "544a4970383bc47d227a29c4"
  }
}
{
  "loc": {
    "coordinates": [
      0.045738291167029,
      51.552854343905
    ],
    "type": "Point"
  },
  "station": "Manor Park",
  "_id": {
    "$oid": "544a4970383bc47d227a29c5"
  }
}
{
  "loc": {
    "coordinates": [
      -0.094183249527509,
      51.512091761163
    ],
    "type": "Point"
  },
  "station": "Mansion House",
  "_id": {
    "$oid": "544a4970383bc47d227a29c6"
  }
}
{
  "loc": {
    "coordinates": [
      -0.15855680746603,
      51.513965510738
    ],
    "type": "Point"
  },
  "station": "Marble Arch",
  "_id": {
    "$oid": "544a4970383bc47d227a29c7"
  }
}
{
  "loc": {
    "coordinates": [
      0.0056960730233714,
      51.545668269809
    ],
    "type": "Point"
  },
  "station": "Maryland",
  "_id": {
    "$oid": "544a4970383bc47d227a29c8"
  }
}
{
  "loc": {
    "coordinates": [
      -0.16347815242029,
      51.522396687994
    ],
    "type": "Point"
  },
  "station": "Marylebone",
  "_id": {
    "$oid": "544a4970383bc47d227a29c9"
  }
}
{
  "loc": {
    "coordinates": [
      0.0032192958995991,
      51.483013655604
    ],
    "type": "Point"
  },
  "station": "Maze Hill",
  "_id": {
    "$oid": "544a4970383bc47d227a29ca"
  }
}
{
  "loc": {
    "coordinates": [
      -0.032651671918221,
      51.525310973905
    ],
    "type": "Point"
  },
  "station": "Mile End",
  "_id": {
    "$oid": "544a4970383bc47d227a29cb"
  }
}
{
  "loc": {
    "coordinates": [
      -0.24952262850911,
      51.612871158046
    ],
    "type": "Point"
  },
  "station": "Mill Hill Broadway",
  "_id": {
    "$oid": "544a4970383bc47d227a29cc"
  }
}
{
  "loc": {
    "coordinates": [
      -0.20988127429344,
      51.608316669912
    ],
    "type": "Point"
  },
  "station": "Mill Hill East",
  "_id": {
    "$oid": "544a4970383bc47d227a29cd"
  }
}
{
  "loc": {
    "coordinates": [
      -0.15398734320935,
      51.408383928225
    ],
    "type": "Point"
  },
  "station": "Mitcham Eastfields",
  "_id": {
    "$oid": "544a4970383bc47d227a29ce"
  }
}
{
  "loc": {
    "coordinates": [
      -0.15742227287945,
      51.39304258672
    ],
    "type": "Point"
  },
  "station": "Mitcham Junction",
  "_id": {
    "$oid": "544a4970383bc47d227a29cf"
  }
}
{
  "loc": {
    "coordinates": [
      -0.086173905918798,
      51.510630425959
    ],
    "type": "Point"
  },
  "station": "Monument",
  "_id": {
    "$oid": "544a4970383bc47d227a29d0"
  }
}
{
  "loc": {
    "coordinates": [
      -0.4328985822977,
      51.629930718133
    ],
    "type": "Point"
  },
  "station": "Moor Park",
  "_id": {
    "$oid": "544a4970383bc47d227a29d1"
  }
}
{
  "loc": {
    "coordinates": [
      -0.08900327764505,
      51.518437149414
    ],
    "type": "Point"
  },
  "station": "Moorgate",
  "_id": {
    "$oid": "544a4970383bc47d227a29d2"
  }
}
{
  "loc": {
    "coordinates": [
      -0.19483760810466,
      51.402185984981
    ],
    "type": "Point"
  },
  "station": "Morden",
  "_id": {
    "$oid": "544a4970383bc47d227a29d3"
  }
}
{
  "loc": {
    "coordinates": [
      -0.20028719027858,
      51.396307721608
    ],
    "type": "Point"
  },
  "station": "Morden South",
  "_id": {
    "$oid": "544a4970383bc47d227a29d4"
  }
}
{
  "loc": {
    "coordinates": [
      -0.1387299346061,
      51.534362233874
    ],
    "type": "Point"
  },
  "station": "Mornington Crescent",
  "_id": {
    "$oid": "544a4970383bc47d227a29d5"
  }
}
{
  "loc": {
    "coordinates": [
      -0.26718891965297,
      51.468167968359
    ],
    "type": "Point"
  },
  "station": "Mortlake",
  "_id": {
    "$oid": "544a4970383bc47d227a29d6"
  }
}
{
  "loc": {
    "coordinates": [
      -0.23942537454861,
      51.395319655441
    ],
    "type": "Point"
  },
  "station": "Motspur Park",
  "_id": {
    "$oid": "544a4970383bc47d227a29d7"
  }
}
{
  "loc": {
    "coordinates": [
      0.050338587672779,
      51.439824969906
    ],
    "type": "Point"
  },
  "station": "Mottingham",
  "_id": {
    "$oid": "544a4970383bc47d227a29d8"
  }
}
{
  "loc": {
    "coordinates": [
      -0.014945543221677,
      51.491236186648
    ],
    "type": "Point"
  },
  "station": "Mudchute",
  "_id": {
    "$oid": "544a4970383bc47d227a29d9"
  }
}
{
  "loc": {
    "coordinates": [
      -0.25010062378951,
      51.554627747213
    ],
    "type": "Point"
  },
  "station": "Neasden",
  "_id": {
    "$oid": "544a4970383bc47d227a29da"
  }
}
{
  "loc": {
    "coordinates": [
      -0.17295526264108,
      51.648536790554
    ],
    "type": "Point"
  },
  "station": "New Barnet",
  "_id": {
    "$oid": "544a4970383bc47d227a29db"
  }
}
{
  "loc": {
    "coordinates": [
      -0.035290571074268,
      51.41670555246
    ],
    "type": "Point"
  },
  "station": "New Beckenham",
  "_id": {
    "$oid": "544a4970383bc47d227a29dc"
  }
}
{
  "loc": {
    "coordinates": [
      -0.032264414494673,
      51.476429418617
    ],
    "type": "Point"
  },
  "station": "New Cross",
  "_id": {
    "$oid": "544a4970383bc47d227a29dd"
  }
}
{
  "loc": {
    "coordinates": [
      -0.039514655295107,
      51.475264932486
    ],
    "type": "Point"
  },
  "station": "New Cross Gate",
  "_id": {
    "$oid": "544a4970383bc47d227a29de"
  }
}
{
  "loc": {
    "coordinates": [
      0.070459003212279,
      51.437690651019
    ],
    "type": "Point"
  },
  "station": "New Eltham",
  "_id": {
    "$oid": "544a4970383bc47d227a29df"
  }
}
{
  "loc": {
    "coordinates": [
      -0.25620373217155,
      51.403555937615
    ],
    "type": "Point"
  },
  "station": "New Malden",
  "_id": {
    "$oid": "544a4970383bc47d227a29e0"
  }
}
{
  "loc": {
    "coordinates": [
      -0.14299533557942,
      51.614093683634
    ],
    "type": "Point"
  },
  "station": "New Southgate",
  "_id": {
    "$oid": "544a4970383bc47d227a29e1"
  }
}
{
  "loc": {
    "coordinates": [
      0.090317586010402,
      51.575638344309
    ],
    "type": "Point"
  },
  "station": "Newbury Park",
  "_id": {
    "$oid": "544a4970383bc47d227a29e2"
  }
}
{
  "loc": {
    "coordinates": [
      -0.28418557131983,
      51.411909385349
    ],
    "type": "Point"
  },
  "station": "Norbiton",
  "_id": {
    "$oid": "544a4970383bc47d227a29e3"
  }
}
{
  "loc": {
    "coordinates": [
      -0.12278502535626,
      51.411188517406
    ],
    "type": "Point"
  },
  "station": "Norbury",
  "_id": {
    "$oid": "544a4970383bc47d227a29e4"
  }
}
{
  "loc": {
    "coordinates": [
      -0.25971511616691,
      51.523432458806
    ],
    "type": "Point"
  },
  "station": "North Acton",
  "_id": {
    "$oid": "544a4970383bc47d227a29e5"
  }
}
{
  "loc": {
    "coordinates": [
      -0.087904290624922,
      51.454481818931
    ],
    "type": "Point"
  },
  "station": "North Dulwich",
  "_id": {
    "$oid": "544a4970383bc47d227a29e6"
  }
}
{
  "loc": {
    "coordinates": [
      -0.28897914280262,
      51.517622323819
    ],
    "type": "Point"
  },
  "station": "North Ealing",
  "_id": {
    "$oid": "544a4970383bc47d227a29e7"
  }
}
{
  "loc": {
    "coordinates": [
      0.0036006636371896,
      51.500255151591
    ],
    "type": "Point"
  },
  "station": "North Greenwich",
  "_id": {
    "$oid": "544a4970383bc47d227a29e8"
  }
}
{
  "loc": {
    "coordinates": [
      -0.3626185623764,
      51.584631342978
    ],
    "type": "Point"
  },
  "station": "North Harrow",
  "_id": {
    "$oid": "544a4970383bc47d227a29e9"
  }
}
{
  "loc": {
    "coordinates": [
      -0.28638307337002,
      51.465419645874
    ],
    "type": "Point"
  },
  "station": "North Sheen",
  "_id": {
    "$oid": "544a4970383bc47d227a29ea"
  }
}
{
  "loc": {
    "coordinates": [
      -0.30393379535805,
      51.562396328364
    ],
    "type": "Point"
  },
  "station": "North Wembley",
  "_id": {
    "$oid": "544a4970383bc47d227a29eb"
  }
}
{
  "loc": {
    "coordinates": [
      -0.31505041439224,
      51.500491708619
    ],
    "type": "Point"
  },
  "station": "Northfields",
  "_id": {
    "$oid": "544a4970383bc47d227a29ec"
  }
}
{
  "loc": {
    "coordinates": [
      -0.36842617615208,
      51.548212945697
    ],
    "type": "Point"
  },
  "station": "Northolt",
  "_id": {
    "$oid": "544a4970383bc47d227a29ed"
  }
}
{
  "loc": {
    "coordinates": [
      -0.35941977403748,
      51.557619094925
    ],
    "type": "Point"
  },
  "station": "Northolt Park",
  "_id": {
    "$oid": "544a4970383bc47d227a29ee"
  }
}
{
  "loc": {
    "coordinates": [
      -0.31818496289702,
      51.5785087266
    ],
    "type": "Point"
  },
  "station": "Northwick Park",
  "_id": {
    "$oid": "544a4970383bc47d227a29ef"
  }
}
{
  "loc": {
    "coordinates": [
      -0.42382334746562,
      51.611213662308
    ],
    "type": "Point"
  },
  "station": "Northwood",
  "_id": {
    "$oid": "544a4970383bc47d227a29f0"
  }
}
{
  "loc": {
    "coordinates": [
      -0.40929692189409,
      51.600802695129
    ],
    "type": "Point"
  },
  "station": "Northwood Hills",
  "_id": {
    "$oid": "544a4970383bc47d227a29f1"
  }
}
{
  "loc": {
    "coordinates": [
      -0.075195484483074,
      51.396954330829
    ],
    "type": "Point"
  },
  "station": "Norwood Junction",
  "_id": {
    "$oid": "544a4970383bc47d227a29f2"
  }
}
{
  "loc": {
    "coordinates": [
      -0.1959072111467,
      51.509375359878
    ],
    "type": "Point"
  },
  "station": "Notting Hill Gate",
  "_id": {
    "$oid": "544a4970383bc47d227a29f3"
  }
}
{
  "loc": {
    "coordinates": [
      -0.053665348737765,
      51.466579990247
    ],
    "type": "Point"
  },
  "station": "Nunhead",
  "_id": {
    "$oid": "544a4970383bc47d227a29f4"
  }
}
{
  "loc": {
    "coordinates": [
      -0.16618051866214,
      51.637676382963
    ],
    "type": "Point"
  },
  "station": "Oakleigh Park",
  "_id": {
    "$oid": "544a4970383bc47d227a29f5"
  }
}
{
  "loc": {
    "coordinates": [
      -0.1318390886991,
      51.64763797617
    ],
    "type": "Point"
  },
  "station": "Oakwood",
  "_id": {
    "$oid": "544a4970383bc47d227a29f6"
  }
}
{
  "loc": {
    "coordinates": [
      0.29049788622813,
      51.521989609028
    ],
    "type": "Point"
  },
  "station": "Ockendon",
  "_id": {
    "$oid": "544a4970383bc47d227a29f7"
  }
}
{
  "loc": {
    "coordinates": [
      -0.087608545343845,
      51.525581481862
    ],
    "type": "Point"
  },
  "station": "Old Street",
  "_id": {
    "$oid": "544a4970383bc47d227a29f8"
  }
}
{
  "loc": {
    "coordinates": [
      0.089043266168332,
      51.373520035814
    ],
    "type": "Point"
  },
  "station": "Orpington",
  "_id": {
    "$oid": "544a4970383bc47d227a29f9"
  }
}
{
  "loc": {
    "coordinates": [
      -0.3520816978192,
      51.481216852781
    ],
    "type": "Point"
  },
  "station": "Osterley",
  "_id": {
    "$oid": "544a4970383bc47d227a29fa"
  }
}
{
  "loc": {
    "coordinates": [
      -0.11330667730935,
      51.481412613811
    ],
    "type": "Point"
  },
  "station": "Oval",
  "_id": {
    "$oid": "544a4970383bc47d227a29fb"
  }
}
{
  "loc": {
    "coordinates": [
      -0.14082176208955,
      51.515223419245
    ],
    "type": "Point"
  },
  "station": "Oxford Circus",
  "_id": {
    "$oid": "544a4970383bc47d227a29fc"
  }
}
{
  "loc": {
    "coordinates": [
      -0.17572234283505,
      51.515393806532
    ],
    "type": "Point"
  },
  "station": "Paddington",
  "_id": {
    "$oid": "544a4970383bc47d227a29fd"
  }
}
{
  "loc": {
    "coordinates": [
      -0.11025805805573,
      51.618786761028
    ],
    "type": "Point"
  },
  "station": "Palmers Green",
  "_id": {
    "$oid": "544a4970383bc47d227a29fe"
  }
}
{
  "loc": {
    "coordinates": [
      -0.28491450496891,
      51.526834054645
    ],
    "type": "Point"
  },
  "station": "Park Royal",
  "_id": {
    "$oid": "544a4970383bc47d227a29ff"
  }
}
{
  "loc": {
    "coordinates": [
      -0.20111009589714,
      51.474960176772
    ],
    "type": "Point"
  },
  "station": "Parsons Green",
  "_id": {
    "$oid": "544a4970383bc47d227a2a00"
  }
}
{
  "loc": {
    "coordinates": [
      -0.069969158361951,
      51.469511372801
    ],
    "type": "Point"
  },
  "station": "Peckham Rye",
  "_id": {
    "$oid": "544a4970383bc47d227a2a01"
  }
}
{
  "loc": {
    "coordinates": [
      -0.054480885538245,
      51.41997535513
    ],
    "type": "Point"
  },
  "station": "Penge East",
  "_id": {
    "$oid": "544a4970383bc47d227a2a02"
  }
}
{
  "loc": {
    "coordinates": [
      -0.060631385884983,
      51.418062935027
    ],
    "type": "Point"
  },
  "station": "Penge West",
  "_id": {
    "$oid": "544a4970383bc47d227a2a03"
  }
}
{
  "loc": {
    "coordinates": [
      -0.32305600630537,
      51.536341860358
    ],
    "type": "Point"
  },
  "station": "Perivale",
  "_id": {
    "$oid": "544a4970383bc47d227a2a04"
  }
}
{
  "loc": {
    "coordinates": [
      0.074494399194959,
      51.388598981243
    ],
    "type": "Point"
  },
  "station": "Petts Wood",
  "_id": {
    "$oid": "544a4970383bc47d227a2a05"
  }
}
{
  "loc": {
    "coordinates": [
      -0.13369718974012,
      51.509696764476
    ],
    "type": "Point"
  },
  "station": "Piccadilly Circus",
  "_id": {
    "$oid": "544a4970383bc47d227a2a06"
  }
}
{
  "loc": {
    "coordinates": [
      -0.1330938573102,
      51.489552877924
    ],
    "type": "Point"
  },
  "station": "Pimlico",
  "_id": {
    "$oid": "544a4970383bc47d227a2a07"
  }
}
{
  "loc": {
    "coordinates": [
      -0.38120935690424,
      51.592361724428
    ],
    "type": "Point"
  },
  "station": "Pinner",
  "_id": {
    "$oid": "544a4970383bc47d227a2a08"
  }
}
{
  "loc": {
    "coordinates": [
      0.017795056275962,
      51.531288332324
    ],
    "type": "Point"
  },
  "station": "Plaistow",
  "_id": {
    "$oid": "544a4970383bc47d227a2a09"
  }
}
{
  "loc": {
    "coordinates": [
      0.084314017745385,
      51.489792413595
    ],
    "type": "Point"
  },
  "station": "Plumstead",
  "_id": {
    "$oid": "544a4970383bc47d227a2a0a"
  }
}
{
  "loc": {
    "coordinates": [
      -0.034510654933282,
      51.642730695
    ],
    "type": "Point"
  },
  "station": "Ponders End",
  "_id": {
    "$oid": "544a4970383bc47d227a2a0b"
  }
}
{
  "loc": {
    "coordinates": [
      0.033340112607835,
      51.502216211037
    ],
    "type": "Point"
  },
  "station": "Pontoon Dock",
  "_id": {
    "$oid": "544a4970383bc47d227a2a0c"
  }
}
{
  "loc": {
    "coordinates": [
      -0.017261086484836,
      51.507588072081
    ],
    "type": "Point"
  },
  "station": "Poplar",
  "_id": {
    "$oid": "544a4970383bc47d227a2a0d"
  }
}
{
  "loc": {
    "coordinates": [
      -0.29495758553154,
      51.572103763883
    ],
    "type": "Point"
  },
  "station": "Preston Road",
  "_id": {
    "$oid": "544a4970383bc47d227a2a0e"
  }
}
{
  "loc": {
    "coordinates": [
      0.033502981448267,
      51.509434545079
    ],
    "type": "Point"
  },
  "station": "Prince Regent",
  "_id": {
    "$oid": "544a4970383bc47d227a2a0f"
  }
}
{
  "loc": {
    "coordinates": [
      -0.012754096692901,
      51.53432785535
    ],
    "type": "Point"
  },
  "station": "Pudding Mill Lane",
  "_id": {
    "$oid": "544a4970383bc47d227a2a10"
  }
}
{
  "loc": {
    "coordinates": [
      0.23678923416561,
      51.481172976438
    ],
    "type": "Point"
  },
  "station": "Purfleet",
  "_id": {
    "$oid": "544a4970383bc47d227a2a11"
  }
}
{
  "loc": {
    "coordinates": [
      -0.11359916443804,
      51.337363567516
    ],
    "type": "Point"
  },
  "station": "Purley",
  "_id": {
    "$oid": "544a4970383bc47d227a2a12"
  }
}
{
  "loc": {
    "coordinates": [
      -0.098800976652713,
      51.346989351539
    ],
    "type": "Point"
  },
  "station": "Purley Oaks",
  "_id": {
    "$oid": "544a4970383bc47d227a2a13"
  }
}
{
  "loc": {
    "coordinates": [
      -0.21658898147399,
      51.460952556568
    ],
    "type": "Point"
  },
  "station": "Putney",
  "_id": {
    "$oid": "544a4970383bc47d227a2a14"
  }
}
{
  "loc": {
    "coordinates": [
      -0.20935102262327,
      51.467865362703
    ],
    "type": "Point"
  },
  "station": "Putney Bridge",
  "_id": {
    "$oid": "544a4970383bc47d227a2a15"
  }
}
{
  "loc": {
    "coordinates": [
      -0.20478373421795,
      51.534312675201
    ],
    "type": "Point"
  },
  "station": "Queens Park",
  "_id": {
    "$oid": "544a4970383bc47d227a2a16"
  }
}
{
  "loc": {
    "coordinates": [
      -0.057340582526957,
      51.474284715779
    ],
    "type": "Point"
  },
  "station": "Queens Road Peckham",
  "_id": {
    "$oid": "544a4970383bc47d227a2a17"
  }
}
{
  "loc": {
    "coordinates": [
      -0.28631716346916,
      51.593883010111
    ],
    "type": "Point"
  },
  "station": "Queensbury",
  "_id": {
    "$oid": "544a4970383bc47d227a2a18"
  }
}
{
  "loc": {
    "coordinates": [
      -0.14734091559888,
      51.47495914471
    ],
    "type": "Point"
  },
  "station": "Queenstown Road",
  "_id": {
    "$oid": "544a4970383bc47d227a2a19"
  }
}
{
  "loc": {
    "coordinates": [
      -0.18740549543317,
      51.510449255439
    ],
    "type": "Point"
  },
  "station": "Queensway",
  "_id": {
    "$oid": "544a4970383bc47d227a2a1a"
  }
}
{
  "loc": {
    "coordinates": [
      -0.31797317069656,
      51.685413310275
    ],
    "type": "Point"
  },
  "station": "Radlett",
  "_id": {
    "$oid": "544a4970383bc47d227a2a1b"
  }
}
{
  "loc": {
    "coordinates": [
      0.19070638530502,
      51.517340491331
    ],
    "type": "Point"
  },
  "station": "Rainham",
  "_id": {
    "$oid": "544a4970383bc47d227a2a1c"
  }
}
{
  "loc": {
    "coordinates": [
      -0.0069234381730423,
      51.413870378956
    ],
    "type": "Point"
  },
  "station": "Ravensbourne",
  "_id": {
    "$oid": "544a4970383bc47d227a2a1d"
  }
}
{
  "loc": {
    "coordinates": [
      -0.23595483065011,
      51.494068008984
    ],
    "type": "Point"
  },
  "station": "Ravenscourt Park",
  "_id": {
    "$oid": "544a4970383bc47d227a2a1e"
  }
}
{
  "loc": {
    "coordinates": [
      -0.371046385824,
      51.575396777398
    ],
    "type": "Point"
  },
  "station": "Rayners Lane",
  "_id": {
    "$oid": "544a4970383bc47d227a2a1f"
  }
}
{
  "loc": {
    "coordinates": [
      -0.22989856350727,
      51.409375373186
    ],
    "type": "Point"
  },
  "station": "Raynes Park",
  "_id": {
    "$oid": "544a4970383bc47d227a2a20"
  }
}
{
  "loc": {
    "coordinates": [
      -0.068371241749211,
      51.558763484573
    ],
    "type": "Point"
  },
  "station": "Rectory Road",
  "_id": {
    "$oid": "544a4970383bc47d227a2a21"
  }
}
{
  "loc": {
    "coordinates": [
      0.045408472505876,
      51.576366911264
    ],
    "type": "Point"
  },
  "station": "Redbridge",
  "_id": {
    "$oid": "544a4970383bc47d227a2a22"
  }
}
{
  "loc": {
    "coordinates": [
      -0.12338827286968,
      51.331441727656
    ],
    "type": "Point"
  },
  "station": "Reedham",
  "_id": {
    "$oid": "544a4970383bc47d227a2a23"
  }
}
{
  "loc": {
    "coordinates": [
      -0.14532999904559,
      51.52381069054
    ],
    "type": "Point"
  },
  "station": "Regents Park",
  "_id": {
    "$oid": "544a4970383bc47d227a2a24"
  }
}
{
  "loc": {
    "coordinates": [
      -0.30172474133933,
      51.463232922347
    ],
    "type": "Point"
  },
  "station": "Richmond",
  "_id": {
    "$oid": "544a4970383bc47d227a2a25"
  }
}
{
  "loc": {
    "coordinates": [
      -0.47367013575456,
      51.640323072212
    ],
    "type": "Point"
  },
  "station": "Rickmansworth",
  "_id": {
    "$oid": "544a4970383bc47d227a2a26"
  }
}
{
  "loc": {
    "coordinates": [
      -0.099479315537562,
      51.332674842588
    ],
    "type": "Point"
  },
  "station": "Riddlesdown",
  "_id": {
    "$oid": "544a4970383bc47d227a2a27"
  }
}
{
  "loc": {
    "coordinates": [
      0.044040648415103,
      51.616956440142
    ],
    "type": "Point"
  },
  "station": "Roding Valley",
  "_id": {
    "$oid": "544a4970383bc47d227a2a28"
  }
}
{
  "loc": {
    "coordinates": [
      0.18306970022131,
      51.574641568849
    ],
    "type": "Point"
  },
  "station": "Romford",
  "_id": {
    "$oid": "544a4970383bc47d227a2a29"
  }
}
{
  "loc": {
    "coordinates": [
      -0.052951891484305,
      51.501594510808
    ],
    "type": "Point"
  },
  "station": "Rotherhithe",
  "_id": {
    "$oid": "544a4970383bc47d227a2a2a"
  }
}
{
  "loc": {
    "coordinates": [
      0.045191552169371,
      51.508493863562
    ],
    "type": "Point"
  },
  "station": "Royal Albert",
  "_id": {
    "$oid": "544a4970383bc47d227a2a2b"
  }
}
{
  "loc": {
    "coordinates": [
      -0.18880926348942,
      51.518294375269
    ],
    "type": "Point"
  },
  "station": "Royal Oak",
  "_id": {
    "$oid": "544a4970383bc47d227a2a2c"
  }
}
{
  "loc": {
    "coordinates": [
      0.017979819853408,
      51.509055232332
    ],
    "type": "Point"
  },
  "station": "Royal Victoria",
  "_id": {
    "$oid": "544a4970383bc47d227a2a2d"
  }
}
{
  "loc": {
    "coordinates": [
      -0.42122049909957,
      51.57216197222
    ],
    "type": "Point"
  },
  "station": "Ruislip",
  "_id": {
    "$oid": "544a4970383bc47d227a2a2e"
  }
}
{
  "loc": {
    "coordinates": [
      -0.40927968814014,
      51.559960227907
    ],
    "type": "Point"
  },
  "station": "Ruislip Gardens",
  "_id": {
    "$oid": "544a4970383bc47d227a2a2f"
  }
}
{
  "loc": {
    "coordinates": [
      -0.41283492710738,
      51.573451624726
    ],
    "type": "Point"
  },
  "station": "Ruislip Manor",
  "_id": {
    "$oid": "544a4970383bc47d227a2a30"
  }
}
{
  "loc": {
    "coordinates": [
      -0.12457578611157,
      51.523013052867
    ],
    "type": "Point"
  },
  "station": "Russell Square",
  "_id": {
    "$oid": "544a4970383bc47d227a2a31"
  }
}
{
  "loc": {
    "coordinates": [
      -0.093694143249397,
      51.34824626461
    ],
    "type": "Point"
  },
  "station": "Sanderstead",
  "_id": {
    "$oid": "544a4970383bc47d227a2a32"
  }
}
{
  "loc": {
    "coordinates": [
      -0.089884666539009,
      51.39218578041
    ],
    "type": "Point"
  },
  "station": "Selhurst",
  "_id": {
    "$oid": "544a4970383bc47d227a2a33"
  }
}
{
  "loc": {
    "coordinates": [
      0.096333999350604,
      51.563993339397
    ],
    "type": "Point"
  },
  "station": "Seven Kings",
  "_id": {
    "$oid": "544a4970383bc47d227a2a34"
  }
}
{
  "loc": {
    "coordinates": [
      -0.0724523920649,
      51.583362168372
    ],
    "type": "Point"
  },
  "station": "Seven Sisters",
  "_id": {
    "$oid": "544a4970383bc47d227a2a35"
  }
}
{
  "loc": {
    "coordinates": [
      -0.056904799137598,
      51.51130016173
    ],
    "type": "Point"
  },
  "station": "Shadwell",
  "_id": {
    "$oid": "544a4970383bc47d227a2a36"
  }
}
{
  "loc": {
    "coordinates": [
      0.32996670993987,
      51.630873056088
    ],
    "type": "Point"
  },
  "station": "Shenfield",
  "_id": {
    "$oid": "544a4970383bc47d227a2a37"
  }
}
{
  "loc": {
    "coordinates": [
      -0.21850475368199,
      51.50453217729
    ],
    "type": "Point"
  },
  "station": "Shepherds Bush",
  "_id": {
    "$oid": "544a4970383bc47d227a2a38"
  }
}
{
  "loc": {
    "coordinates": [
      -0.22738608723774,
      51.505880735504
    ],
    "type": "Point"
  },
  "station": "Shepherds Bush Market",
  "_id": {
    "$oid": "544a4970383bc47d227a2a39"
  }
}
{
  "loc": {
    "coordinates": [
      -0.077073012851082,
      51.523466827911
    ],
    "type": "Point"
  },
  "station": "Shoreditch High Street",
  "_id": {
    "$oid": "544a4970383bc47d227a2a3a"
  }
}
{
  "loc": {
    "coordinates": [
      0.0027819191560382,
      51.40560236593
    ],
    "type": "Point"
  },
  "station": "Shortlands",
  "_id": {
    "$oid": "544a4970383bc47d227a2a3b"
  }
}
{
  "loc": {
    "coordinates": [
      0.10332974285774,
      51.43439844437
    ],
    "type": "Point"
  },
  "station": "Sidcup",
  "_id": {
    "$oid": "544a4970383bc47d227a2a3c"
  }
}
{
  "loc": {
    "coordinates": [
      -0.072575300701906,
      51.615242486372
    ],
    "type": "Point"
  },
  "station": "Silver Street",
  "_id": {
    "$oid": "544a4970383bc47d227a2a3d"
  }
}
{
  "loc": {
    "coordinates": [
      0.19053278174752,
      51.467747631244
    ],
    "type": "Point"
  },
  "station": "Slade Green",
  "_id": {
    "$oid": "544a4970383bc47d227a2a3e"
  }
}
{
  "loc": {
    "coordinates": [
      -0.1564744555002,
      51.492359782932
    ],
    "type": "Point"
  },
  "station": "Sloane Square",
  "_id": {
    "$oid": "544a4970383bc47d227a2a3f"
  }
}
{
  "loc": {
    "coordinates": [
      -0.13433270854947,
      51.322452969178
    ],
    "type": "Point"
  },
  "station": "Smitham",
  "_id": {
    "$oid": "544a4970383bc47d227a2a40"
  }
}
{
  "loc": {
    "coordinates": [
      0.021478357761873,
      51.580891270601
    ],
    "type": "Point"
  },
  "station": "Snaresbrook",
  "_id": {
    "$oid": "544a4970383bc47d227a2a41"
  }
}
{
  "loc": {
    "coordinates": [
      -0.27020080333496,
      51.499685861011
    ],
    "type": "Point"
  },
  "station": "South Acton",
  "_id": {
    "$oid": "544a4970383bc47d227a2a42"
  }
}
{
  "loc": {
    "coordinates": [
      -0.054740420692279,
      51.487676621549
    ],
    "type": "Point"
  },
  "station": "South Bermondsey",
  "_id": {
    "$oid": "544a4970383bc47d227a2a43"
  }
}
{
  "loc": {
    "coordinates": [
      -0.092503001948904,
      51.362750208796
    ],
    "type": "Point"
  },
  "station": "South Croydon",
  "_id": {
    "$oid": "544a4970383bc47d227a2a44"
  }
}
{
  "loc": {
    "coordinates": [
      -0.30702584019952,
      51.501644057917
    ],
    "type": "Point"
  },
  "station": "South Ealing",
  "_id": {
    "$oid": "544a4970383bc47d227a2a45"
  }
}
{
  "loc": {
    "coordinates": [
      -0.1783567825076,
      51.541476868984
    ],
    "type": "Point"
  },
  "station": "South Hampstead",
  "_id": {
    "$oid": "544a4970383bc47d227a2a46"
  }
}
{
  "loc": {
    "coordinates": [
      -0.35187954635816,
      51.564680211138
    ],
    "type": "Point"
  },
  "station": "South Harrow",
  "_id": {
    "$oid": "544a4970383bc47d227a2a47"
  }
}
{
  "loc": {
    "coordinates": [
      -0.17390862058942,
      51.494071386411
    ],
    "type": "Point"
  },
  "station": "South Kensington",
  "_id": {
    "$oid": "544a4970383bc47d227a2a48"
  }
}
{
  "loc": {
    "coordinates": [
      -0.30812855062663,
      51.571044486824
    ],
    "type": "Point"
  },
  "station": "South Kenton",
  "_id": {
    "$oid": "544a4970383bc47d227a2a49"
  }
}
{
  "loc": {
    "coordinates": [
      -0.20553592740103,
      51.403240579864
    ],
    "type": "Point"
  },
  "station": "South Merton",
  "_id": {
    "$oid": "544a4970383bc47d227a2a4a"
  }
}
{
  "loc": {
    "coordinates": [
      -0.018446287979256,
      51.500863608239
    ],
    "type": "Point"
  },
  "station": "South Quay",
  "_id": {
    "$oid": "544a4970383bc47d227a2a4b"
  }
}
{
  "loc": {
    "coordinates": [
      -0.39910148824501,
      51.55689035096
    ],
    "type": "Point"
  },
  "station": "South Ruislip",
  "_id": {
    "$oid": "544a4970383bc47d227a2a4c"
  }
}
{
  "loc": {
    "coordinates": [
      -0.071841526783666,
      51.580402594532
    ],
    "type": "Point"
  },
  "station": "South Tottenham",
  "_id": {
    "$oid": "544a4970383bc47d227a2a4d"
  }
}
{
  "loc": {
    "coordinates": [
      -0.19196016848772,
      51.41536073293
    ],
    "type": "Point"
  },
  "station": "South Wimbledon",
  "_id": {
    "$oid": "544a4970383bc47d227a2a4e"
  }
}
{
  "loc": {
    "coordinates": [
      0.027957511681624,
      51.591552612383
    ],
    "type": "Point"
  },
  "station": "South Woodford",
  "_id": {
    "$oid": "544a4970383bc47d227a2a4f"
  }
}
{
  "loc": {
    "coordinates": [
      -0.37869678379695,
      51.505956957579
    ],
    "type": "Point"
  },
  "station": "Southall",
  "_id": {
    "$oid": "544a4970383bc47d227a2a50"
  }
}
{
  "loc": {
    "coordinates": [
      -0.052968859157203,
      51.648433731335
    ],
    "type": "Point"
  },
  "station": "Southbury",
  "_id": {
    "$oid": "544a4970383bc47d227a2a51"
  }
}
{
  "loc": {
    "coordinates": [
      -0.20659499856664,
      51.444883338258
    ],
    "type": "Point"
  },
  "station": "Southfields",
  "_id": {
    "$oid": "544a4970383bc47d227a2a52"
  }
}
{
  "loc": {
    "coordinates": [
      -0.12775560097809,
      51.63237586338
    ],
    "type": "Point"
  },
  "station": "Southgate",
  "_id": {
    "$oid": "544a4970383bc47d227a2a53"
  }
}
{
  "loc": {
    "coordinates": [
      -0.10578053394541,
      51.503853632869
    ],
    "type": "Point"
  },
  "station": "Southwark",
  "_id": {
    "$oid": "544a4970383bc47d227a2a54"
  }
}
{
  "loc": {
    "coordinates": [
      -0.19900022218424,
      51.389912187517
    ],
    "type": "Point"
  },
  "station": "St Helier",
  "_id": {
    "$oid": "544a4970383bc47d227a2a55"
  }
}
{
  "loc": {
    "coordinates": [
      -0.032790131848525,
      51.580608667586
    ],
    "type": "Point"
  },
  "station": "St James Street",
  "_id": {
    "$oid": "544a4970383bc47d227a2a56"
  }
}
{
  "loc": {
    "coordinates": [
      -0.023226267171585,
      51.468975297065
    ],
    "type": "Point"
  },
  "station": "St Johns",
  "_id": {
    "$oid": "544a4970383bc47d227a2a57"
  }
}
{
  "loc": {
    "coordinates": [
      -0.32130985776381,
      51.455206030249
    ],
    "type": "Point"
  },
  "station": "St Margarets",
  "_id": {
    "$oid": "544a4970383bc47d227a2a58"
  }
}
{
  "loc": {
    "coordinates": [
      0.10723227089692,
      51.394759394244
    ],
    "type": "Point"
  },
  "station": "St Mary Cray",
  "_id": {
    "$oid": "544a4970383bc47d227a2a59"
  }
}
{
  "loc": {
    "coordinates": [
      -0.12549136793246,
      51.530554416571
    ],
    "type": "Point"
  },
  "station": "St Pancras",
  "_id": {
    "$oid": "544a4970383bc47d227a2a5a"
  }
}
{
  "loc": {
    "coordinates": [
      -0.13386435110426,
      51.499609810342
    ],
    "type": "Point"
  },
  "station": "St. James's Park",
  "_id": {
    "$oid": "544a4970383bc47d227a2a5b"
  }
}
{
  "loc": {
    "coordinates": [
      -0.17405042505482,
      51.534854431713
    ],
    "type": "Point"
  },
  "station": "St. Johns Wood",
  "_id": {
    "$oid": "544a4970383bc47d227a2a5c"
  }
}
{
  "loc": {
    "coordinates": [
      -0.097556591574387,
      51.51483530739
    ],
    "type": "Point"
  },
  "station": "St. Pauls",
  "_id": {
    "$oid": "544a4970383bc47d227a2a5d"
  }
}
{
  "loc": {
    "coordinates": [
      -0.24523190696758,
      51.494449997347
    ],
    "type": "Point"
  },
  "station": "Stamford Brook",
  "_id": {
    "$oid": "544a4970383bc47d227a2a5e"
  }
}
{
  "loc": {
    "coordinates": [
      -0.076653913978365,
      51.574447612615
    ],
    "type": "Point"
  },
  "station": "Stamford Hill",
  "_id": {
    "$oid": "544a4970383bc47d227a2a5f"
  }
}
{
  "loc": {
    "coordinates": [
      -0.30308485086488,
      51.6196734807
    ],
    "type": "Point"
  },
  "station": "Stanmore",
  "_id": {
    "$oid": "544a4970383bc47d227a2a60"
  }
}
{
  "loc": {
    "coordinates": [
      0.0042054135552674,
      51.520604250081
    ],
    "type": "Point"
  },
  "station": "Star Lane",
  "_id": {
    "$oid": "544a4970383bc47d227a2a61"
  }
}
{
  "loc": {
    "coordinates": [
      -0.047368111957746,
      51.521995838874
    ],
    "type": "Point"
  },
  "station": "Stepney Green",
  "_id": {
    "$oid": "544a4970383bc47d227a2a62"
  }
}
{
  "loc": {
    "coordinates": [
      -0.12283190859196,
      51.472159270341
    ],
    "type": "Point"
  },
  "station": "Stockwell",
  "_id": {
    "$oid": "544a4970383bc47d227a2a63"
  }
}
{
  "loc": {
    "coordinates": [
      -0.072320969849242,
      51.564637618307
    ],
    "type": "Point"
  },
  "station": "Stoke Newington",
  "_id": {
    "$oid": "544a4970383bc47d227a2a64"
  }
}
{
  "loc": {
    "coordinates": [
      -0.27538602336732,
      51.54398658738
    ],
    "type": "Point"
  },
  "station": "Stonebridge Park",
  "_id": {
    "$oid": "544a4970383bc47d227a2a65"
  }
}
{
  "loc": {
    "coordinates": [
      -0.248695295654,
      51.363364082259
    ],
    "type": "Point"
  },
  "station": "Stoneleigh",
  "_id": {
    "$oid": "544a4970383bc47d227a2a66"
  }
}
{
  "loc": {
    "coordinates": [
      -0.0037372234417709,
      51.541692579295
    ],
    "type": "Point"
  },
  "station": "Stratford",
  "_id": {
    "$oid": "544a4970383bc47d227a2a67"
  }
}
{
  "loc": {
    "coordinates": [
      -0.001065939537146,
      51.538148951165
    ],
    "type": "Point"
  },
  "station": "Stratford High Street",
  "_id": {
    "$oid": "544a4970383bc47d227a2a68"
  }
}
{
  "loc": {
    "coordinates": [
      -0.0087640154463654,
      51.54480853536
    ],
    "type": "Point"
  },
  "station": "Stratford International",
  "_id": {
    "$oid": "544a4970383bc47d227a2a69"
  }
}
{
  "loc": {
    "coordinates": [
      -0.33960334587097,
      51.439747873261
    ],
    "type": "Point"
  },
  "station": "Strawberry Hill",
  "_id": {
    "$oid": "544a4970383bc47d227a2a6a"
  }
}
{
  "loc": {
    "coordinates": [
      -0.13231111566835,
      51.425845878375
    ],
    "type": "Point"
  },
  "station": "Streatham",
  "_id": {
    "$oid": "544a4970383bc47d227a2a6b"
  }
}
{
  "loc": {
    "coordinates": [
      -0.13571178617484,
      51.418984686908
    ],
    "type": "Point"
  },
  "station": "Streatham Common",
  "_id": {
    "$oid": "544a4970383bc47d227a2a6c"
  }
}
{
  "loc": {
    "coordinates": [
      -0.1276670964405,
      51.438460380547
    ],
    "type": "Point"
  },
  "station": "Streatham Hill",
  "_id": {
    "$oid": "544a4970383bc47d227a2a6d"
  }
}
{
  "loc": {
    "coordinates": [
      -0.31591182033013,
      51.554493821699
    ],
    "type": "Point"
  },
  "station": "Sudbury and Harrow Road",
  "_id": {
    "$oid": "544a4970383bc47d227a2a6e"
  }
}
{
  "loc": {
    "coordinates": [
      -0.33637769283987,
      51.557339600086
    ],
    "type": "Point"
  },
  "station": "Sudbury Hill",
  "_id": {
    "$oid": "544a4970383bc47d227a2a6f"
  }
}
{
  "loc": {
    "coordinates": [
      -0.33543227050831,
      51.558342313079
    ],
    "type": "Point"
  },
  "station": "Sudbury Hill Harrow",
  "_id": {
    "$oid": "544a4970383bc47d227a2a70"
  }
}
{
  "loc": {
    "coordinates": [
      -0.31632906529511,
      51.551397480891
    ],
    "type": "Point"
  },
  "station": "Sudbury Town",
  "_id": {
    "$oid": "544a4970383bc47d227a2a71"
  }
}
{
  "loc": {
    "coordinates": [
      0.020379486210958,
      51.413393796204
    ],
    "type": "Point"
  },
  "station": "Sundridge Park",
  "_id": {
    "$oid": "544a4970383bc47d227a2a72"
  }
}
{
  "loc": {
    "coordinates": [
      -0.3043701893312,
      51.392599569913
    ],
    "type": "Point"
  },
  "station": "Surbiton",
  "_id": {
    "$oid": "544a4970383bc47d227a2a73"
  }
}
{
  "loc": {
    "coordinates": [
      -0.047515585346921,
      51.493266862158
    ],
    "type": "Point"
  },
  "station": "Surrey Quays",
  "_id": {
    "$oid": "544a4970383bc47d227a2a74"
  }
}
{
  "loc": {
    "coordinates": [
      -0.19128765090448,
      51.359506158142
    ],
    "type": "Point"
  },